StreetName,FullAddress,Post_Code,County,Lat,Long,Nbrhd_Comm
Cherry,1532 Cherry Ave Unit 2,95125.0,Santa Clara,37.2979064,-121.9028536,
Almaden,1 Almaden Blvd 1150,95113.0,Santa Clara,37.33337865,-121.8955318,
Julian,1 E Julian St Unit 322,95112.0,Santa Clara,37.34123167,-121.8937966,
Branham,100 Branham Ln E Unit 1207,95111.0,Santa Clara,37.26833822,-121.8224349,
Minnesota,1055 Minnesota Ave Ofc 7,95125.0,Santa Clara,37.30429727,-121.8966047,
McLaughlin,1739 McLaughlin Ave Unit A,95122.0,Santa Clara,37.32510716,-121.8467298,
McLaughlin,1739 McLaughlin Ave Unit B,95122.0,Santa Clara,37.32508009,-121.8466949,
McLaughlin,1739 McLaughlin Ave Unit C,95122.0,Santa Clara,37.32510795,-121.846661,
McLaughlin,1739 McLaughlin Ave Unit D,95122.0,Santa Clara,37.32508049,-121.8466605,
McLaughlin,1739 McLaughlin Ave Unit F,95122.0,Santa Clara,37.32510755,-121.8466954,
Mirassou,1739 Mirassou Pl,95124.0,Santa Clara,37.24298141,-121.9106178,
Montemar,1739 Montemar Way,95125.0,Santa Clara,37.29073112,-121.9164898,
Mt Rushmore,1739 Mt Rushmore Dr,95127.0,Santa Clara,37.34959331,-121.8034776,
1st,1739 N 1st St,95112.0,Santa Clara,37.36889241,-121.9150339,
Minnesota,1055 Minnesota Ave Ofc 8,95125.0,Santa Clara,37.304319,-121.896629,
Old Piedmont,1739 Old Piedmont Rd,95132.0,Santa Clara,37.41247577,-121.8512926,
Parkdale,1739 Parkdale Way,95127.0,Santa Clara,37.34589562,-121.8112861,
Parkview Green,1739 Parkview Green Cir,95131.0,Santa Clara,37.37856263,-121.8829995,
Piedmont,1739 Piedmont Rd,95132.0,Santa Clara,37.41164795,-121.8539687,
Pine Hollow,1739 Pine Hollow Cir,95133.0,Santa Clara,37.36783119,-121.8611435,
Quimby,1739 Quimby Rd,95122.0,Santa Clara,37.32883744,-121.8211763,
Ravens Place,1739 Ravens Place Way,95121.0,Santa Clara,37.30114368,-121.805459,
Rigoletto,1739 Rigoletto Dr,95122.0,Santa Clara,37.31928709,-121.8219562,
Minnesota,1055 Minnesota Ave Ofc 9,95125.0,Santa Clara,37.30435481,-121.8966644,
Ross,1739 Ross Cir Unit 1,95124.0,Santa Clara,37.25260999,-121.9115914,
Ross,1739 Ross Cir Unit 2,95124.0,Santa Clara,37.25260958,-121.9116257,
Ross,1739 Ross Cir Unit 3,95124.0,Santa Clara,37.25258253,-121.9115909,
Ross,1739 Ross Cir Unit 4,95124.0,Santa Clara,37.25258212,-121.9116252,
Samson,1739 Samson Ct,95124.0,Santa Clara,37.25370863,-121.9121516,
San Tomas Aquino,1739 San Tomas Aquino Rd,95130.0,Santa Clara,37.29137563,-121.9769472,
Septembersong,1739 Septembersong Ct,95131.0,Santa Clara,37.37869882,-121.8754264,
Shasta,1739 Shasta Ave,95128.0,Santa Clara,37.32506471,-121.9238745,
Silvertree,1739 Silvertree Dr,95131.0,Santa Clara,37.39290503,-121.8825178,
Springsong,1739 Springsong Dr,95131.0,Santa Clara,37.37660794,-121.8740712,
Moongate,1055 Moongate Pl,95120.0,Santa Clara,37.21284149,-121.8483146,
Sundown,1739 Sundown Ln,95127.0,Santa Clara,37.34382456,-121.8147605,
Swanston,1739 Swanston Way,95132.0,Santa Clara,37.40555701,-121.8707368,
Valpico,1739 Valpico Dr,95124.0,Santa Clara,37.27513728,-121.911746,
San Carlos,1739 W San Carlos St,95128.0,Santa Clara,37.32389884,-121.9230608,
Westhaven,1739 Westhaven Dr,95132.0,Santa Clara,37.40614072,-121.8610035,
Whispering Willow,1739 Whispering Willow Pl,95125.0,Santa Clara,37.29288051,-121.9118109,
Willow Creek,1739 Willow Creek Ct,95124.0,Santa Clara,37.27157394,-121.9127726,
Acacia,174 Acacia St,95110.0,Santa Clara,37.34577289,-121.9016074,
Acacia,174 Acacia St B,95110.0,Santa Clara,37.34580136,-121.9016296,
Morse,1055 Morse St,95126.0,Santa Clara,37.34136551,-121.9286837,
Espana,174 Avenida Espana,95139.0,Santa Clara,37.2226321,-121.7673283,
Banana Grove,174 Banana Grove Ln,95123.0,Santa Clara,37.25773808,-121.8245686,
Monterey,6130 Monterey Rd Spc 174,95138.0,Santa Clara,37.23867943,-121.7678003,
Blossom Hill,174 Blossom Hill Rd,95123.0,Santa Clara,37.25105983,-121.8110916,
Blossom,174 Blossom Way,95123.0,Santa Clara,37.25284344,-121.8114113,
Brill,174 Brill Ct,95116.0,Santa Clara,37.36375808,-121.8442731,
Brooklyn,174 Brooklyn Ave,95128.0,Santa Clara,37.32644986,-121.9285819,
Burning Tree,174 Burning Tree Dr,95119.0,Santa Clara,37.2269557,-121.7786327,
Alondra,174 Calle Alondra Rd,95111.0,Santa Clara,37.25825344,-121.8023163,
Castillon,174 Castillon Way,95119.0,Santa Clara,37.23225409,-121.7929048,
Mountain Shadows,1055 Mountain Shadows Rd,95120.0,Santa Clara,37.20181169,-121.8348082,
Cedarwood,174 Cedarwood Dr,95131.0,Santa Clara,37.39902789,-121.906619,
Chateau La Salle,174 Chateau La Salle Dr,95111.0,Santa Clara,37.29463185,-121.8551817,
Checkers,174 Checkers Dr,95116.0,Santa Clara,37.35861381,-121.852708,
Cheltenham,174 Cheltenham Pl,95139.0,Santa Clara,37.22107902,-121.7641816,
Cheryl Beck,174 Cheryl Beck Dr,95119.0,Santa Clara,37.23912089,-121.7963507,
Chynoweth,174 Chynoweth Ave,95136.0,Santa Clara,37.25839897,-121.8245481,
Clayton,174 Clayton Ave,95110.0,Santa Clara,37.3426462,-121.899348,
Coffeeberry,174 Coffeeberry Dr,95123.0,Santa Clara,37.23894,-121.8060204,
Nevada,1055 Nevada Ave,95125.0,Santa Clara,37.30226086,-121.8940017,
Colonade,174 Colonade Sq,95127.0,Santa Clara,37.36135714,-121.8306577,
Component,174 Component Dr,95131.0,Santa Clara,37.38414695,-121.9223664,
Damsen,174 Damsen Dr,95116.0,Santa Clara,37.36305573,-121.8455396,
Danze,174 Danze Dr,95111.0,Santa Clara,37.25989064,-121.8040878,
Younger,174 E Younger Ave,95112.0,Santa Clara,37.35684826,-121.900745,
El Bosque,174 El Bosque St,95134.0,Santa Clara,37.41404846,-121.9420043,
Fleming,174 Fleming Ct,95127.0,Santa Clara,37.37441729,-121.8174634,
Goldenrain,174 Goldenrain Dr,95111.0,Santa Clara,37.26893365,-121.8180724,
Herlong,174 Herlong Ave,95123.0,Santa Clara,37.2436353,-121.807963,
Nevada,1055 Nevada Ave 1/2,95125.0,Santa Clara,37.30219203,-121.8939596,
Hobson,174 Hobson St,95110.0,Santa Clara,37.34523409,-121.9012232,
Hollywood,174 Hollywood Ave,95112.0,Santa Clara,37.31918981,-121.873898,
Iris Blossom,174 Iris Blossom Ct,95123.0,Santa Clara,37.25248403,-121.8139722,
Kayak,174 Kayak Dr,95111.0,Santa Clara,37.26267849,-121.8079021,
Kehoe,174 Kehoe Ct,95136.0,Santa Clara,37.26216917,-121.8291765,
Knightshaven,174 Knightshaven Way,95111.0,Santa Clara,37.27285281,-121.8174582,
Magellan,174 Magellan Ave,95116.0,Santa Clara,37.35717618,-121.8561394,
Millar,174 Millar Ave,95127.0,Santa Clara,37.36565465,-121.8227501,
Monte Verano,174 Monte Verano Ct,95116.0,Santa Clara,37.36200877,-121.8400627,
Newhall,1055 Newhall St,95126.0,Santa Clara,37.34506448,-121.9266719,
Mountain Springs,174 Mountain Springs Dr,95136.0,Santa Clara,37.28219817,-121.8646314,
Mountain View,174 Mountain View Ave,95127.0,Santa Clara,37.37960698,-121.8228435,
Muirfield,174 Muirfield Dr,95116.0,Santa Clara,37.35758313,-121.8381911,
14th,174 N 14th St,95112.0,Santa Clara,37.34499814,-121.878808,
16th,174 N 16th St,95112.0,Santa Clara,37.34601974,-121.8768918,
17th,174 N 17th St,95112.0,Santa Clara,37.34641004,-121.8760521,
18th,174 N 18th St,95112.0,Santa Clara,37.34690454,-121.8752031,
24th,174 N 24th St,95116.0,Santa Clara,37.34942348,-121.8697508,
Buena Vista,174 N Buena Vista Ave,95126.0,Santa Clara,37.32549062,-121.9188953,
Barletta,3124 Barletta Ln,95127.0,Santa Clara,37.37099229,-121.8311678,
Niguel,1055 Niguel Ln,95138.0,Santa Clara,37.24226189,-121.7643458,
Noyo,174 Noyo Dr,95123.0,Santa Clara,37.24506339,-121.8089156,
Oak Brook,174 Oak Brook Cir,95139.0,Santa Clara,37.22376477,-121.7754178,
Obert,174 Obert Dr,95136.0,Santa Clara,37.2614483,-121.8288795,
October,174 October Dr,95138.0,Santa Clara,37.25115343,-121.7930703,
Page Mill,174 Page Mill Dr,95111.0,Santa Clara,37.26465323,-121.8114777,
Rainier,174 Rainier St,95126.0,Santa Clara,37.32723869,-121.9091856,
Revey,174 Revey Ave,95128.0,Santa Clara,37.32542929,-121.9345894,
Rio De Lata,174 Rio De Lata,95121.0,Santa Clara,37.30302374,-121.8138942,
Roundtable,174 Roundtable Dr,95111.0,Santa Clara,37.26066143,-121.8038236,
Branham,100 Branham Ln E Unit 1208,95111.0,Santa Clara,37.26841719,-121.8223169,
Noble,1055 Noble Ln,95132.0,Santa Clara,37.39490318,-121.836381,
Blossom Hill,165 Blossom Hill Rd Spc 174,95123.0,Santa Clara,37.25278944,-121.8097783,
13th,174 S 13th St,95112.0,Santa Clara,37.33939793,-121.8757679,
26th,174 S 26th St,95116.0,Santa Clara,37.34505454,-121.8634838,
Capitol,174 S Capitol Ave,95127.0,Santa Clara,37.36030406,-121.8329212,
Sun Blossom,174 Sun Blossom Dr,95123.0,Santa Clara,37.25477655,-121.8129898,
Sun Ridge,174 Sun Ridge Ln,95123.0,Santa Clara,37.24785669,-121.8572088,
Sunol,174 Sunol St,95126.0,Santa Clara,37.32718557,-121.9060483,
Sunwood Meadows,174 Sunwood Meadows Pl,95119.0,Santa Clara,37.22792462,-121.7737101,
Sutter,174 Sutter St,95110.0,Santa Clara,37.32138414,-121.8833609,
Truckee,174 Truckee Ln,95136.0,Santa Clara,37.27363991,-121.8393814,
2nd,1055 N 2nd St,95112.0,Santa Clara,37.35620254,-121.9045197,
Venado,174 Venado Way,95123.0,Santa Clara,37.24868722,-121.8104417,
Viewmont,174 Viewmont Ave,95127.0,Santa Clara,37.36690804,-121.8219139,
Virginia,1748 Virginia Ave Unit 1,95116.0,Santa Clara,37.34543758,-121.8467095,
Virginia,1748 Virginia Ave Unit 10,95116.0,Santa Clara,37.34543719,-121.8467439,
Virginia,1748 Virginia Ave Unit 11,95116.0,Santa Clara,37.34543679,-121.8467783,
Virginia,1748 Virginia Ave Unit 2,95116.0,Santa Clara,37.3454364,-121.8468127,
Virginia,1748 Virginia Ave Unit 3,95116.0,Santa Clara,37.345436,-121.8468471,
Virginia,1748 Virginia Ave Unit 4,95116.0,Santa Clara,37.34546022,-121.8467314,
Virginia,1748 Virginia Ave Unit 5,95116.0,Santa Clara,37.34545982,-121.8467658,
Virginia,1748 Virginia Ave Unit 6,95116.0,Santa Clara,37.34545943,-121.8468002,
4th,1055 N 4th St,95112.0,Santa Clara,37.35777347,-121.9026706,
Virginia,1748 Virginia Ave Unit 7,95116.0,Santa Clara,37.34545903,-121.8468346,
Virginia,1748 Virginia Ave Unit 8,95116.0,Santa Clara,37.34545864,-121.846869,
Virginia,1748 Virginia Ave Unit 9,95116.0,Santa Clara,37.34541757,-121.8467244,
Weber,174 Weber St,95111.0,Santa Clara,37.29045971,-121.8439555,
Wyandotte,174 Wyandotte Dr,95123.0,Santa Clara,37.24437155,-121.8076644,
Yasou Demas,174 Yasou Demas Way,95119.0,Santa Clara,37.23914268,-121.7948338,
Abington,1740 Abington Ct,95131.0,Santa Clara,37.37523388,-121.8721191,
Alberta,1740 Alberta Ave,95125.0,Santa Clara,37.29849913,-121.8909604,
Arbor,1740 Arbor Dr,95125.0,Santa Clara,37.30217724,-121.8832839,
Arroyo De Oro,1740 Arroyo De Oro,95116.0,Santa Clara,37.35864974,-121.8584611,
5th,1055 N 5th St,95112.0,Santa Clara,37.35807121,-121.9015779,
Balsa,1740 Balsa Ave,95124.0,Santa Clara,37.27227238,-121.9130891,
Barberry,1740 Barberry Ln,95122.0,Santa Clara,37.31406698,-121.8160367,
Berrywood,1740 Berrywood Dr,95133.0,Santa Clara,37.35952341,-121.8604738,
Bevin Brook,1740 Bevin Brook Dr,95112.0,Santa Clara,37.31926017,-121.8550532,
Birch Lake,1740 Birch Lake Ct,95131.0,Santa Clara,37.38478157,-121.8925816,
Blackford,1740 Blackford Ln,95125.0,Santa Clara,37.29790486,-121.9165581,
Braddock,1740 Braddock Ct,95125.0,Santa Clara,37.29492477,-121.92309,
Cabana,1740 Cabana Dr,95125.0,Santa Clara,37.28759813,-121.9166811,
Cape Misty,1740 Cape Misty Dr,95133.0,Santa Clara,37.374551,-121.8709919,
Cassiar,1740 Cassiar Dr,95130.0,Santa Clara,37.29109033,-121.9752835,
7th,1055 N 7th St,95112.0,Santa Clara,37.35914698,-121.8994344,
Castlegate,1740 Castlegate Dr,95132.0,Santa Clara,37.40531853,-121.8615842,
Chesterton,1740 Chesterton Cir,95133.0,Santa Clara,37.37246231,-121.8718233,
Cleveland,1740 Cleveland Ave,95126.0,Santa Clara,37.32869683,-121.9273957,
Cooley,1740 Cooley Dr,95116.0,Santa Clara,37.34839338,-121.8491978,
De Marietta,1740 De Marietta Ave Unit 1,95126.0,Santa Clara,37.30273303,-121.9242828,
De Marietta,1740 De Marietta Ave Unit 2,95126.0,Santa Clara,37.30273303,-121.9243204,
De Marietta,1740 De Marietta Ave Unit 3,95126.0,Santa Clara,37.30270316,-121.9242828,
De Marietta,1740 De Marietta Ave Unit 4,95126.0,Santa Clara,37.30270316,-121.924315,
William,1740 E William St,95116.0,Santa Clara,37.34867271,-121.8502344,
Capitol,1055 N Capitol Ave 1,95133.0,Santa Clara,37.38387583,-121.8580188,
Fabian,1740 Fabian Dr,95124.0,Santa Clara,37.27359085,-121.9120891,
Fallbrook,1740 Fallbrook Ave,95130.0,Santa Clara,37.29059546,-121.9837556,
Foxworthy,1740 Foxworthy Ave,95124.0,Santa Clara,37.26872875,-121.9126106,
Frobisher,1740 Frobisher Way,95124.0,Santa Clara,37.27856426,-121.9129162,
Fumia,1740 Fumia Ct,95131.0,Santa Clara,37.38958163,-121.8974548,
Galewood,1740 Galewood Ct,95133.0,Santa Clara,37.36060554,-121.8615392,
Hallmark,1740 Hallmark Ln,95124.0,Santa Clara,37.26133145,-121.9106631,
Harte,1740 Harte Dr,95124.0,Santa Clara,37.27524586,-121.9121057,
Hester,1740 Hester Ave,95128.0,Santa Clara,37.32503376,-121.9244928,
Capitol,1055 N Capitol Ave 10,95133.0,Santa Clara,37.38363727,-121.8583746,
Home Gate,1740 Home Gate Dr,95148.0,Santa Clara,37.34106102,-121.8186567,
Isabel,1740 Isabel Dr,95125.0,Santa Clara,37.30048152,-121.9167417,
Junction,1740 Junction Ave,95112.0,Santa Clara,37.37468635,-121.9047907,
Junction,1740 Junction Ave Ste A,95112.0,Santa Clara,37.37471423,-121.9047568,
Junction,1740 Junction Ave Ste B,95112.0,Santa Clara,37.37471381,-121.9047913,
Junction,1740 Junction Ave Ste C,95112.0,Santa Clara,37.37468718,-121.9047219,
Junction,1740 Junction Ave Ste D,95112.0,Santa Clara,37.37468676,-121.9047563,
Laurelwood,1740 Laurelwood Dr,95125.0,Santa Clara,37.2823757,-121.9111241,
Lincoln,1740 Lincoln Ave,95125.0,Santa Clara,37.29798186,-121.8927705,
Marigold,1740 Marigold Ct,95133.0,Santa Clara,37.36007824,-121.8610287,
Capitol,1055 N Capitol Ave 100,95133.0,Santa Clara,37.38298633,-121.8596912,
Marina,1740 Marina Way,95125.0,Santa Clara,37.29168577,-121.9167013,
Maysong,1740 Maysong Ct,95131.0,Santa Clara,37.37772076,-121.8745187,
Minas De Oro,1740 Minas De Oro,95116.0,Santa Clara,37.35820874,-121.8577246,
Morrill,1740 Morrill Ave,95132.0,Santa Clara,37.40385321,-121.8660501,
Mt Vernon,1740 Mt Vernon Dr,95125.0,Santa Clara,37.29098685,-121.9166805,
Myra,1740 Myra Dr,95124.0,Santa Clara,37.23677047,-121.9121466,
4th,1740 N 4th St,95112.0,Santa Clara,37.36818045,-121.9096248,
Pine Hollow,1740 Pine Hollow Cir,95133.0,Santa Clara,37.36813374,-121.8615465,
Queens Crossing,1740 Queens Crossing Dr,95132.0,Santa Clara,37.40508314,-121.8636148,
Capitol,1055 N Capitol Ave 101,95133.0,Santa Clara,37.38290619,-121.8596951,
Quimby,1740 Quimby Rd,95122.0,Santa Clara,37.32873144,-121.8210633,
Ravens Place,1740 Ravens Place Way,95121.0,Santa Clara,37.30086932,-121.8050986,
Ridgetree,1740 Ridgetree Way,95131.0,Santa Clara,37.39886076,-121.8776143,
River Birch,1740 River Birch Dr,95131.0,Santa Clara,37.37406216,-121.8743612,
Rock Spring,1740 Rock Spring Dr Unit 1,95112.0,Santa Clara,37.31889689,-121.856118,
Rock Spring,1740 Rock Spring Dr Unit 2,95112.0,Santa Clara,37.31891271,-121.8560899,
Rock Spring,1740 Rock Spring Dr Unit 3,95112.0,Santa Clara,37.31892732,-121.8560633,
Rock Spring,1740 Rock Spring Dr Unit 4,95112.0,Santa Clara,37.3189504,-121.8560264,
Capitol,1055 N Capitol Ave 102,95133.0,Santa Clara,37.38288142,-121.8596971,
Sageland,1740 Sageland Dr,95131.0,Santa Clara,37.38028027,-121.8759407,
Samson,1740 Samson Ct,95124.0,Santa Clara,37.25331836,-121.9120086,
San Tomas Aquino,1740 San Tomas Aquino Rd,95130.0,Santa Clara,37.29114786,-121.9762578,
Silverwood,1740 Silverwood Dr,95124.0,Santa Clara,37.26192864,-121.9109544,
Sundown,1740 Sundown Ln,95127.0,Santa Clara,37.34401716,-121.8143267,
Sweetbriar,1740 Sweetbriar Dr,95125.0,Santa Clara,37.28175139,-121.910394,
Technology,1740 Technology Dr Ste 500,95110.0,Santa Clara,37.36788853,-121.9179384,
Technology,1740 Technology Dr Ste 110,95110.0,Santa Clara,37.36782869,-121.9178379,
Technology,1740 Technology Dr Ste 150,95110.0,Santa Clara,37.36753878,-121.9181839,
Technology,1740 Technology Dr Ste 200,95110.0,Santa Clara,37.36771358,-121.9182965,
Branham,100 Branham Ln E Unit 1209,95111.0,Santa Clara,37.26827525,-121.8223397,
Capitol,1055 N Capitol Ave 103,95133.0,Santa Clara,37.3828276,-121.8596199,
Technology,1740 Technology Dr Ste 205,95110.0,Santa Clara,37.36776368,-121.9179036,
Technology,1740 Technology Dr Ste 210,95112.0,Santa Clara,37.36755894,-121.917491,
Technology,1740 Technology Dr Ste 250,95110.0,Santa Clara,37.36762085,-121.9179264,
Technology,1740 Technology Dr Ste 260,95110.0,Santa Clara,37.36763364,-121.9178446,
Technology,1740 Technology Dr Ste 270,95112.0,Santa Clara,37.36755853,-121.9175254,
Technology,1740 Technology Dr Ste 300,95110.0,Santa Clara,37.36768693,-121.918039,
Technology,1740 Technology Dr Ste 400,95110.0,Santa Clara,37.36766135,-121.9180913,
Technology,1740 Technology Dr Ste 460,95110.0,Santa Clara,37.36767414,-121.9180672,
Technology,1740 Technology Dr Ste 550,95110.0,Santa Clara,37.36748762,-121.9182402,
Topeka,1740 Topeka Ave,95126.0,Santa Clara,37.32916522,-121.9281977,
Capitol,1055 N Capitol Ave 104,95133.0,Santa Clara,37.38280282,-121.8596229,
University,1740 University Way,95126.0,Santa Clara,37.3324681,-121.9318513,
Valpico,1740 Valpico Dr,95124.0,Santa Clara,37.27462534,-121.9115655,
Flores,1740 Via Flores Ct,95132.0,Santa Clara,37.40129273,-121.8772036,
Wayne,1740 Wayne Cir,95131.0,Santa Clara,37.3881784,-121.8967755,
Willow Lake,1740 Willow Lake Ln,95131.0,Santa Clara,37.38558379,-121.8912288,
Woodridge,1740 Woodridge Way,95127.0,Santa Clara,37.34565749,-121.8115236,
Yerba Buena,1740 Yerba Buena Rd,95121.0,Santa Clara,37.29899792,-121.8035437,
Abington,1741 Abington Ct,95131.0,Santa Clara,37.37544472,-121.8723108,
Berryessa,1741 Berryessa Rd A,95133.0,Santa Clara,37.37516349,-121.8726599,
Berryessa,1741 Berryessa Rd B,95133.0,Santa Clara,37.37521144,-121.872747,
Capitol,1055 N Capitol Ave 105,95133.0,Santa Clara,37.38318223,-121.8602745,
Berrywood,1741 Berrywood Dr,95133.0,Santa Clara,37.35986355,-121.8607876,
Birch Lake,1741 Birch Lake Ct,95131.0,Santa Clara,37.38470123,-121.8928853,
Biscayne,1741 Biscayne Way,95122.0,Santa Clara,37.33518203,-121.8361719,
Braddock,1741 Braddock Ct,95125.0,Santa Clara,37.29497118,-121.9231879,
Cambria,1741 Cambria Ct,95124.0,Santa Clara,37.25362742,-121.912606,
Cape Misty,1741 Cape Misty Dr,95133.0,Santa Clara,37.37480216,-121.8714555,
Castlegate,1741 Castlegate Dr,95132.0,Santa Clara,37.40565009,-121.8619814,
Cleveland,1741 Cleveland Ave,95126.0,Santa Clara,37.32903892,-121.9277876,
Clovis,1741 Clovis Ave,95124.0,Santa Clara,37.23920514,-121.9125541,
Cooley,1741 Cooley Dr,95116.0,Santa Clara,37.3486981,-121.8493816,
Capitol,1055 N Capitol Ave 106,95133.0,Santa Clara,37.38315946,-121.8602736,
Coralee,1741 Coralee Dr,95124.0,Santa Clara,37.24905128,-121.9126593,
Crane Ridge,1741 Crane Ridge Ct,95121.0,Santa Clara,37.29583668,-121.8011188,
Creekstone,1741 Creekstone Cir,95133.0,Santa Clara,37.36865487,-121.8677515,
Curtner,1741 Curtner Ave,95124.0,Santa Clara,37.28035907,-121.9129068,
Dorrance,1741 Dorrance Dr,95125.0,Santa Clara,37.28514484,-121.9123597,
El Codo,1741 El Codo Way,95124.0,Santa Clara,37.27292501,-121.9133585,
Fabian,1741 Fabian Dr,95124.0,Santa Clara,37.27403557,-121.9124271,
Fallbrook,1741 Fallbrook Ave,95130.0,Santa Clara,37.2908664,-121.984192,
Flint Creek,1741 Flint Creek Way,95148.0,Santa Clara,37.35309772,-121.7914407,
Foley,1741 Foley Ave,95122.0,Santa Clara,37.32921131,-121.8390039,
Capitol,1055 N Capitol Ave 107,95133.0,Santa Clara,37.38323181,-121.8601862,
Frobisher,1741 Frobisher Way,95124.0,Santa Clara,37.27896644,-121.9132332,
Fumia,1741 Fumia Ct,95131.0,Santa Clara,37.38936653,-121.897791,
Galewood,1741 Galewood Ct,95133.0,Santa Clara,37.36094558,-121.8618618,
Guadalupe,1741 Guadalupe Ave,95125.0,Santa Clara,37.30198567,-121.8812526,
Hallmark,1741 Hallmark Ln,95124.0,Santa Clara,37.26166986,-121.9108516,
Harmil,1741 Harmil Way,95125.0,Santa Clara,37.29903873,-121.8897019,
Harte,1741 Harte Dr,95124.0,Santa Clara,37.27559522,-121.9126254,
Hayford,1741 Hayford Dr,95130.0,Santa Clara,37.29110107,-121.9740009,
Hillsdale,1741 Hillsdale Ave,95124.0,Santa Clara,37.26570416,-121.9128056,
Home Gate,1741 Home Gate Dr,95148.0,Santa Clara,37.34071092,-121.818639,
Capitol,1055 N Capitol Ave 108,95133.0,Santa Clara,37.383211,-121.8601882,
Hudson,1741 Hudson Dr,95124.0,Santa Clara,37.27729273,-121.9130838,
Johnston,1741 Johnston Ave,95125.0,Santa Clara,37.30070395,-121.8864166,
Junction,1741 Junction Ave,95112.0,Santa Clara,37.37673238,-121.9070208,
King,1741 King Ct,95122.0,Santa Clara,37.31235427,-121.8142389,
Laurelwood,1741 Laurelwood Dr,95125.0,Santa Clara,37.28264671,-121.911652,
Ledgewood,1741 Ledgewood Dr,95124.0,Santa Clara,37.26495951,-121.9124483,
Leeward,1741 Leeward Dr,95122.0,Santa Clara,37.3407714,-121.8225104,
Lorenzen,1741 Lorenzen Dr,95124.0,Santa Clara,37.27653674,-121.9128029,
Lucca,1741 Lucca Pl,95138.0,Santa Clara,37.27814393,-121.7795023,
Marigold,1741 Marigold Ct,95133.0,Santa Clara,37.36041117,-121.86136,
Capitol,1055 N Capitol Ave 109,95133.0,Santa Clara,37.38333799,-121.8601631,
Marina,1741 Marina Way,95125.0,Santa Clara,37.29213098,-121.9166957,
Maykirk,1741 Maykirk Ct,95124.0,Santa Clara,37.28531717,-121.9140919,
Maysong,1741 Maysong Ct,95131.0,Santa Clara,37.37811032,-121.8748453,
Mendenhall,1741 Mendenhall Dr,95130.0,Santa Clara,37.29108839,-121.9749209,
Messina,1741 Messina Dr,95132.0,Santa Clara,37.40696219,-121.8595166,
Minas De Oro,1741 Minas De Oro,95116.0,Santa Clara,37.35842493,-121.8581609,
Mossbrook,1741 Mossbrook Ave,95130.0,Santa Clara,37.29029786,-121.9836108,
Mt Vernon,1741 Mt Vernon Dr,95125.0,Santa Clara,37.29142068,-121.9166939,
Nomark,1741 Nomark Ct,95125.0,Santa Clara,37.29313711,-121.9039958,
Capitol,1055 N Capitol Ave 11,95133.0,Santa Clara,37.38358181,-121.8584536,
Oldtree,1741 Oldtree Ct,95131.0,Santa Clara,37.40007613,-121.8787006,
Parkview Green,1741 Parkview Green Cir,95131.0,Santa Clara,37.37860023,-121.8829234,
Quimby,1741 Quimby Rd,95122.0,Santa Clara,37.32862544,-121.8209503,
Ridgetree,1741 Ridgetree Way,95131.0,Santa Clara,37.39848842,-121.8780788,
Rogers,1741 Rogers Ave,95112.0,Santa Clara,37.37633337,-121.9098554,
Sageland,1741 Sageland Dr,95131.0,Santa Clara,37.38046662,-121.8764154,
Santa Lucia,1741 Santa Lucia Dr,95125.0,Santa Clara,37.30195815,-121.9161126,
Saratoga,1741 Saratoga Ave,95129.0,Santa Clara,37.29057553,-121.9941377,
Saratoga,1741 Saratoga Ave Ste 102,95129.0,Santa Clara,37.29060572,-121.9939438,
Capitol,1055 N Capitol Ave 110,95133.0,Santa Clara,37.38330834,-121.86016,
Saratoga,1741 Saratoga Ave Ste 105,95129.0,Santa Clara,37.29060528,-121.9939782,
Saratoga,1741 Saratoga Ave Ste 106,95129.0,Santa Clara,37.29057914,-121.9938745,
Saratoga,1741 Saratoga Ave Ste 107,95129.0,Santa Clara,37.2905787,-121.9939089,
Saratoga,1741 Saratoga Ave Ste 109,95129.0,Santa Clara,37.29057826,-121.9939432,
Saratoga,1741 Saratoga Ave Ste 111,95129.0,Santa Clara,37.29057782,-121.9939776,
Saratoga,1741 Saratoga Ave Ste 200,95129.0,Santa Clara,37.29055168,-121.9938739,
Saratoga,1741 Saratoga Ave Ste 201,95129.0,Santa Clara,37.29055124,-121.9939083,
Saratoga,1741 Saratoga Ave Ste 205,95129.0,Santa Clara,37.2905508,-121.9939427,
Saratoga,1741 Saratoga Ave Ste 206,95129.0,Santa Clara,37.29055036,-121.9939771,
Saratoga,1741 Saratoga Ave Ste 207,95129.0,Santa Clara,37.29052421,-121.9938734,
Capitol,1055 N Capitol Ave 111,95133.0,Santa Clara,37.38338912,-121.8600681,
Saratoga,1741 Saratoga Ave Ste 209,95129.0,Santa Clara,37.29052378,-121.9939078,
Saratoga,1741 Saratoga Ave Ste 210,95129.0,Santa Clara,37.29052334,-121.9939421,
Saratoga,1741 Saratoga Ave Ste 213,95129.0,Santa Clara,37.2905229,-121.9939765,
Seville,1741 Seville Way,95131.0,Santa Clara,37.37909628,-121.8743012,
Silver Creek,1741 Silver Creek Ct,95121.0,Santa Clara,37.30035849,-121.8040858,
Silvertree,1741 Silvertree Dr,95131.0,Santa Clara,37.3930485,-121.8823961,
Silverwood,1741 Silverwood Dr,95124.0,Santa Clara,37.26222295,-121.9114042,
Smith,1741 Smith Ave,95112.0,Santa Clara,37.31371441,-121.8631744,
Capitol,1741 S Capitol Ave,95127.0,Santa Clara,37.34189416,-121.8195642,
Sweetbriar,1741 Sweetbriar Dr,95125.0,Santa Clara,37.28209138,-121.9109824,
Branham,100 Branham Ln E Unit 1210,95111.0,Santa Clara,37.2683617,-121.8222364,
Capitol,1055 N Capitol Ave 112,95133.0,Santa Clara,37.38336755,-121.8600732,
Technology,1741 Technology Dr,95110.0,Santa Clara,37.36803355,-121.920986,
Technology,1741 Technology Dr 100,95110.0,Santa Clara,37.36800567,-121.9210198,
Technology,1741 Technology Dr 130,95110.0,Santa Clara,37.36839083,-121.9206746,
Technology,1741 Technology Dr 200,95110.0,Santa Clara,37.36803439,-121.9209171,
Technology,1741 Technology Dr 250,95110.0,Santa Clara,37.36797905,-121.9209505,
Technology,1741 Technology Dr 260,95110.0,Santa Clara,37.36797821,-121.9210193,
Technology,1741 Technology Dr 300,95110.0,Santa Clara,37.36800651,-121.920951,
Technology,1741 Technology Dr 310,95110.0,Santa Clara,37.36797946,-121.9209161,
Technology,1741 Technology Dr 320,95110.0,Santa Clara,37.367952,-121.9209156,
Technology,1741 Technology Dr 350,95110.0,Santa Clara,37.36803313,-121.9210204,
Capitol,1055 N Capitol Ave 113,95133.0,Santa Clara,37.38340858,-121.8599481,
Technology,1741 Technology Dr 380,95110.0,Santa Clara,37.36797863,-121.9209849,
Technology,1741 Technology Dr 390,95110.0,Santa Clara,37.36803397,-121.9209516,
Technology,1741 Technology Dr 400,95110.0,Santa Clara,37.36800692,-121.9209166,
Technology,1741 Technology Dr 500,95110.0,Santa Clara,37.36800609,-121.9209854,
Terilyn,1741 Terilyn Ave,95122.0,Santa Clara,37.328892,-121.8398305,
Topeka,1741 Topeka Ave,95126.0,Santa Clara,37.32948583,-121.9286209,
University,1741 University Ave,95126.0,Santa Clara,37.3322156,-121.9315823,
Valpico,1741 Valpico Dr,95124.0,Santa Clara,37.27504825,-121.9119514,
Cortina,1741 Via Cortina,95120.0,Santa Clara,37.22147682,-121.9055921,
Vistaglen,1741 Vistaglen Dr,95122.0,Santa Clara,37.34024187,-121.8230765,
Capitol,1055 N Capitol Ave 114,95133.0,Santa Clara,37.38338677,-121.8599506,
Welch,1741 Welch Ave Unit 1,95112.0,Santa Clara,37.31797935,-121.8572015,
Welch,1741 Welch Ave Unit 2,95112.0,Santa Clara,37.31795464,-121.8572351,
Welch,1741 Welch Ave Unit 3,95112.0,Santa Clara,37.31794537,-121.8571704,
Welch,1741 Welch Ave Unit 4,95112.0,Santa Clara,37.31792356,-121.8572005,
Wickham,1741 Wickham Rd,95132.0,Santa Clara,37.40381322,-121.8638825,
Wilcox,1741 Wilcox Way,95125.0,Santa Clara,37.294863,-121.8999656,
Willow Creek,1741 Willow Creek Ct,95124.0,Santa Clara,37.27141847,-121.9126404,
Yerba Buena,1741 Yerba Buena Rd,95121.0,Santa Clara,37.29941435,-121.8040813,
Abington,1742 Abington Ct,95131.0,Santa Clara,37.37528703,-121.8720695,
Capitol,1055 N Capitol Ave 115,95133.0,Santa Clara,37.38346639,-121.8598521,
Aprilsong,1742 Aprilsong Ct,95131.0,Santa Clara,37.37720559,-121.8739154,
Bethany,1742 Bethany Ave,95132.0,Santa Clara,37.40248032,-121.8719952,
Beverly,1742 Beverly Blvd,95116.0,Santa Clara,37.3536876,-121.8553426,
Bevin Brook,1742 Bevin Brook Dr,95112.0,Santa Clara,37.31933838,-121.8546671,
Birch Lake,1742 Birch Lake Ct,95131.0,Santa Clara,37.38480203,-121.8925242,
Braddock,1742 Braddock Ct,95125.0,Santa Clara,37.2950832,-121.9231061,
Cambria,1742 Cambria Ct,95124.0,Santa Clara,37.25320133,-121.9123929,
Cheney,1742 Cheney Dr,95128.0,Santa Clara,37.30577023,-121.9235581,
Cherry Grove,1742 Cherry Grove Dr,95125.0,Santa Clara,37.29249201,-121.9167467,
Coastland,1742 Coastland Ave,95125.0,Santa Clara,37.30059885,-121.8867139,
Capitol,1055 N Capitol Ave 116,95133.0,Santa Clara,37.38344461,-121.8598513,
Commodore,1742 Commodore Dr,95133.0,Santa Clara,37.37110138,-121.8687082,
Comstock,1742 Comstock Ln,95124.0,Santa Clara,37.2777511,-121.9129207,
Cottle,1742 Cottle Ave,95125.0,Santa Clara,37.29531709,-121.89835,
Curtner,1742 Curtner Ave,95124.0,Santa Clara,37.2798654,-121.91269,
Dalton,1742 Dalton Pl,95124.0,Santa Clara,37.24358604,-121.9101794,
Del Paso,1742 Del Paso Ave,95124.0,Santa Clara,37.25401575,-121.9123769,
Dorrance,1742 Dorrance Dr,95125.0,Santa Clara,37.28472964,-121.9122183,
Dry Creek,1742 Dry Creek Rd,95125.0,Santa Clara,37.28659531,-121.9131312,
Duvall,1742 Duvall Dr,95130.0,Santa Clara,37.29043656,-121.9851315,
El Codo,1742 El Codo Way,95124.0,Santa Clara,37.27273739,-121.9137876,
Capitol,1055 N Capitol Ave 117,95133.0,Santa Clara,37.38352967,-121.8599164,
El Dorado,1742 El Dorado Ave,95126.0,Santa Clara,37.33438285,-121.9340489,
Ellen,1742 Ellen Ave,95125.0,Santa Clara,37.29970765,-121.8883125,
Everglade,1742 Everglade Ave,95122.0,Santa Clara,37.3372529,-121.83854,
Ewer,1742 Ewer Dr,95124.0,Santa Clara,37.25679816,-121.9123779,
Fabian,1742 Fabian Dr,95124.0,Santa Clara,37.27352116,-121.9122688,
Fanwood,1742 Fanwood Ct,95133.0,Santa Clara,37.3737788,-121.8705181,
Florida,1742 Florida Ave,95122.0,Santa Clara,37.33097454,-121.8364893,
Glen Una,1742 Glen Una Ave,95125.0,Santa Clara,37.29882919,-121.8899025,
Hallmark,1742 Hallmark Ln,95124.0,Santa Clara,37.26123601,-121.9108541,
Harmil,1742 Harmil Way,95125.0,Santa Clara,37.29925743,-121.8891879,
Capitol,1055 N Capitol Ave 118,95133.0,Santa Clara,37.38350323,-121.8599176,
Harte,1742 Harte Dr,95124.0,Santa Clara,37.27515692,-121.9123017,
Hayford,1742 Hayford Dr,95130.0,Santa Clara,37.29112777,-121.9734315,
Hillsdale,1742 Hillsdale Ave,95124.0,Santa Clara,37.26519492,-121.9125564,
Home Gate,1742 Home Gate Dr,95148.0,Santa Clara,37.34101538,-121.8187623,
Hudson,1742 Hudson Dr,95124.0,Santa Clara,37.27690829,-121.9129127,
Indigo Oak,1742 Indigo Oak Ln,95121.0,Santa Clara,37.29653374,-121.801804,
Karl,1742 Karl St,95122.0,Santa Clara,37.3379142,-121.8271428,
Laurelwood,1742 Laurelwood Dr,95125.0,Santa Clara,37.28222131,-121.9113899,
Lavonne,1742 Lavonne Ave,95116.0,Santa Clara,37.34451695,-121.8463563,
Ledgewood,1742 Ledgewood Dr,95124.0,Santa Clara,37.26450758,-121.9122982,
Capitol,1055 N Capitol Ave 119,95133.0,Santa Clara,37.38346289,-121.8600023,
Loch Ness,1742 Loch Ness Way,95121.0,Santa Clara,37.30547217,-121.8085705,
Maykirk,1742 Maykirk Ct,95124.0,Santa Clara,37.28496344,-121.9138191,
McBain,1742 McBain Ave,95125.0,Santa Clara,37.28922025,-121.9168534,
Mendenhall,1742 Mendenhall Dr,95130.0,Santa Clara,37.29110302,-121.974348,
Mt Kenya,1742 Mt Kenya Dr,95127.0,Santa Clara,37.35158048,-121.7994975,
Mulberry,1742 Mulberry Ln,95125.0,Santa Clara,37.28294236,-121.9118764,
Naglee,1742 Naglee Ave,95126.0,Santa Clara,37.32973994,-121.9289723,
Nomark,1742 Nomark Ct,95125.0,Santa Clara,37.29333971,-121.9034666,
Oldtree,1742 Oldtree Ct,95131.0,Santa Clara,37.40051856,-121.8783699,
Capitol,1055 N Capitol Ave 12,95133.0,Santa Clara,37.38356233,-121.8584537,
Olivetree,1742 Olivetree Dr,95131.0,Santa Clara,37.39799709,-121.8785991,
Orlando,1742 Orlando Dr,95122.0,Santa Clara,37.33253159,-121.8343438,
Park,1742 Park Ave,95126.0,Santa Clara,37.33464967,-121.9246126,
Parkdale,1742 Parkdale Way,95127.0,Santa Clara,37.34612708,-121.8108404,
Sol,1742 Plaza Sol,95131.0,Santa Clara,37.38986005,-121.8902971,
Quimby,1742 Quimby Rd,95122.0,Santa Clara,37.32872544,-121.8208003,
River Birch,1742 River Birch Dr,95131.0,Santa Clara,37.37410663,-121.8742587,
Rock Spring,1742 Rock Spring Dr Unit 1,95112.0,Santa Clara,37.31890022,-121.8559199,
Capitol,1055 N Capitol Ave 120,95133.0,Santa Clara,37.38344328,-121.860007,
Rock Spring,1742 Rock Spring Dr Unit 2,95112.0,Santa Clara,37.31887678,-121.8558852,
Rock Spring,1742 Rock Spring Dr Unit 3,95112.0,Santa Clara,37.31884613,-121.8558548,
Rock Spring,1742 Rock Spring Dr Unit 4,95112.0,Santa Clara,37.31881671,-121.8558214,
Santa Barbara,1742 Santa Barbara Dr,95125.0,Santa Clara,37.29972817,-121.9164545,
Schulte,1742 Schulte Dr,95133.0,Santa Clara,37.36120338,-121.8620159,
Septembersong,1742 Septembersong Ct,95131.0,Santa Clara,37.37844709,-121.8748954,
Seville,1742 Seville Way,95131.0,Santa Clara,37.37946736,-121.8740929,
Shady Creek,1742 Shady Creek Ct,95148.0,Santa Clara,37.35302185,-121.7920218,
Silver Creek,1742 Silver Creek Ct,95121.0,Santa Clara,37.2999844,-121.8037464,
Silverwood,1742 Silverwood Dr,95124.0,Santa Clara,37.26187193,-121.9111739,
Branham,100 Branham Ln E Unit 1211,95111.0,Santa Clara,37.26814824,-121.822176,
Capitol,1055 N Capitol Ave 121,95133.0,Santa Clara,37.38344879,-121.8601429,
Stone,1742 Stone Ave,95125.0,Santa Clara,37.3050836,-121.8742443,
Stone,1742 Stone Ave Ste A,95125.0,Santa Clara,37.3049671,-121.8746089,
Stone,1742 Stone Ave Ste B,95125.0,Santa Clara,37.30487082,-121.8745848,
Terilyn,1742 Terilyn Ave,95122.0,Santa Clara,37.32915481,-121.8393596,
Trudean,1742 Trudean Way,95132.0,Santa Clara,37.40259398,-121.8695273,
University,1742 University Ave,95126.0,Santa Clara,37.33185404,-121.9311391,
Valpico,1742 Valpico Dr,95124.0,Santa Clara,37.27454082,-121.9117497,
Vintner,1742 Vintner Way,95124.0,Santa Clara,37.24545663,-121.9124597,
Vistaglen,1742 Vistaglen Dr,95122.0,Santa Clara,37.33989904,-121.8226804,
Capitol,1055 N Capitol Ave 122,95133.0,Santa Clara,37.38342304,-121.8601436,
Welch,1742 Welch Ave Unit 1,95112.0,Santa Clara,37.31825153,-121.8567619,
Welch,1742 Welch Ave Unit 2,95112.0,Santa Clara,37.31821464,-121.8567352,
Welch,1742 Welch Ave Unit 3,95112.0,Santa Clara,37.31830738,-121.8566553,
Welch,1742 Welch Ave Unit 4,95112.0,Santa Clara,37.31827294,-121.85662,
Willow Creek,1742 Willow Creek Ct,95124.0,Santa Clara,37.27162266,-121.9122105,
Willow Lake,1742 Willow Lake Ln,95131.0,Santa Clara,37.38564666,-121.891424,
Abington,1743 Abington Ct,95131.0,Santa Clara,37.37551013,-121.8722637,
Aprilsong,1743 Aprilsong Ct,95131.0,Santa Clara,37.37758142,-121.8742209,
Balsa,1743 Balsa Ave,95124.0,Santa Clara,37.27248158,-121.913619,
Berryessa,1743 Berryessa Rd,95133.0,Santa Clara,37.37506117,-121.8724909,
Capitol,1055 N Capitol Ave 123,95133.0,Santa Clara,37.38338809,-121.8602301,
Birch Lake,1743 Birch Lake Ct,95131.0,Santa Clara,37.38480587,-121.892807,
Blossom Hill,1743 Blossom Hill Rd,95124.0,Santa Clara,37.23659311,-121.9125008,
Braddock,1743 Braddock Ct,95125.0,Santa Clara,37.29511148,-121.9231075,
Cape Horn,1743 Cape Horn Pl,95133.0,Santa Clara,37.37096405,-121.8682108,
Cathay,1743 Cathay Dr,95122.0,Santa Clara,37.33559425,-121.8312325,
Chaucer,1743 Chaucer Dr,95116.0,Santa Clara,37.34314847,-121.8448508,
Cherry Grove,1743 Cherry Grove Dr,95125.0,Santa Clara,37.29282676,-121.9167849,
Clarence,1743 Clarence Ct,95124.0,Santa Clara,37.28456362,-121.9137823,
Coastland,1743 Coastland Ave,95125.0,Santa Clara,37.30034239,-121.8871931,
Creekstone,1743 Creekstone Cir,95133.0,Santa Clara,37.36873057,-121.8676751,
Capitol,1055 N Capitol Ave 124,95133.0,Santa Clara,37.38336681,-121.8602295,
Crucero,1743 Crucero Dr,95122.0,Santa Clara,37.32799198,-121.8435892,
Curtner,1743 Curtner Ave,95124.0,Santa Clara,37.28025509,-121.9130854,
Dorrance,1743 Dorrance Dr,95125.0,Santa Clara,37.28508603,-121.9126173,
Duvall,1743 Duvall Dr,95130.0,Santa Clara,37.29077921,-121.9855659,
El Codo,1743 El Codo Way,95124.0,Santa Clara,37.27307819,-121.9134911,
Ellen,1743 Ellen Ave,95125.0,Santa Clara,37.29949264,-121.888835,
Fabian,1743 Fabian Dr,95124.0,Santa Clara,37.27396451,-121.9125819,
Fanwood,1743 Fanwood Ct,95133.0,Santa Clara,37.37415004,-121.8708711,
Florida,1743 Florida Ave,95122.0,Santa Clara,37.33068852,-121.8369107,
Glen Una,1743 Glen Una Ave,95125.0,Santa Clara,37.29861379,-121.890379,
Capitol,1055 N Capitol Ave 125,95133.0,Santa Clara,37.38327988,-121.8602506,
Hallmark,1743 Hallmark Ln,95124.0,Santa Clara,37.2616098,-121.9110493,
Harte,1743 Harte Dr,95124.0,Santa Clara,37.27550634,-121.9128167,
Home Gate,1743 Home Gate Dr,95148.0,Santa Clara,37.3406668,-121.8187282,
Hudson,1743 Hudson Dr,95124.0,Santa Clara,37.27720752,-121.9132614,
Indigo Oak,1743 Indigo Oak Ln,95121.0,Santa Clara,37.29682511,-121.8021109,
Jonathan,1743 Jonathan Ave,95125.0,Santa Clara,37.29985169,-121.8880204,
Laurelwood,1743 Laurelwood Dr,95125.0,Santa Clara,37.28253235,-121.9118985,
Lavonne,1743 Lavonne Ave,95116.0,Santa Clara,37.34493098,-121.8467998,
Ledgewood,1743 Ledgewood Dr,95124.0,Santa Clara,37.26490316,-121.912647,
McBain,1743 McBain Ave,95125.0,Santa Clara,37.28987427,-121.9169255,
Capitol,1055 N Capitol Ave 126,95133.0,Santa Clara,37.38326036,-121.8602491,
Monrovia,1743 Monrovia Dr,95122.0,Santa Clara,37.31324528,-121.8156564,
Orlando,1743 Orlando Dr,95122.0,Santa Clara,37.33223404,-121.8348232,
Park,1743 Park Ave,95126.0,Santa Clara,37.33420656,-121.9248058,
Parkside,1743 Parkside Ave,95125.0,Santa Clara,37.30077138,-121.8889458,
Parkview Green,1743 Parkview Green Cir,95131.0,Santa Clara,37.37863241,-121.8829247,
Pine Hollow,1743 Pine Hollow Cir,95133.0,Santa Clara,37.36774908,-121.8612745,
Quimby,1743 Quimby Rd,95122.0,Santa Clara,37.32883144,-121.8209063,
Ramstree,1743 Ramstree Dr,95131.0,Santa Clara,37.3943787,-121.8809919,
Ringwood,1743 Ringwood Ave,95131.0,Santa Clara,37.38799176,-121.8936221,
Capitol,1055 N Capitol Ave 127,95133.0,Santa Clara,37.38322571,-121.8603382,
Rock Spring,1743 Rock Spring Dr Unit 1,95112.0,Santa Clara,37.3184816,-121.856381,
Rock Spring,1743 Rock Spring Dr Unit 2,95112.0,Santa Clara,37.31845849,-121.8564209,
Rock Spring,1743 Rock Spring Dr Unit 3,95112.0,Santa Clara,37.31844336,-121.856348,
Rock Spring,1743 Rock Spring Dr Unit 4,95112.0,Santa Clara,37.3184191,-121.8563834,
Rogers,1743 Rogers Ave,95112.0,Santa Clara,37.37631554,-121.9099611,
Ross,1743 Ross Cir Unit 1,95124.0,Santa Clara,37.25249191,-121.9114938,
Ross,1743 Ross Cir Unit 2,95124.0,Santa Clara,37.25249149,-121.9115282,
Ross,1743 Ross Cir Unit 3,95124.0,Santa Clara,37.25246444,-121.9114933,
Capitol,1055 N Capitol Ave 128,95133.0,Santa Clara,37.383206,-121.8603417,
Ross,1743 Ross Cir Unit 4,95124.0,Santa Clara,37.25246403,-121.9115276,
Santa Barbara,1743 Santa Barbara Dr,95125.0,Santa Clara,37.30016121,-121.9164495,
Septembersong,1743 Septembersong Ct,95131.0,Santa Clara,37.37881732,-121.8752498,
Seville,1743 Seville Way,95131.0,Santa Clara,37.37919288,-121.8744888,
Shady Creek,1743 Shady Creek Ct,95148.0,Santa Clara,37.35295788,-121.7924299,
Shasta,1743 Shasta Ave,95128.0,Santa Clara,37.32491861,-121.9239759,
Silvertree,1743 Silvertree Dr,95131.0,Santa Clara,37.39309093,-121.8821519,
Stokes,1743 Stokes St Unit 1,95126.0,Santa Clara,37.30160224,-121.924712,
Stokes,1743 Stokes St Unit 2,95126.0,Santa Clara,37.30160224,-121.9247442,
Capitol,1055 N Capitol Ave 129,95133.0,Santa Clara,37.38365369,-121.8597338,
Stokes,1743 Stokes St Unit 3,95126.0,Santa Clara,37.30157237,-121.9246744,
Stokes,1743 Stokes St Unit 4,95126.0,Santa Clara,37.30157237,-121.924712,
Sundown,1743 Sundown Ln,95127.0,Santa Clara,37.34367253,-121.8146127,
Sweetbriar,1743 Sweetbriar Dr,95125.0,Santa Clara,37.28189337,-121.9113307,
Valpico,1743 Valpico Dr,95124.0,Santa Clara,37.27496307,-121.9121474,
Willow Creek,1743 Willow Creek Ct,95124.0,Santa Clara,37.271232,-121.9125329,
Willowhurst,1743 Willowhurst Ave,95125.0,Santa Clara,37.293613,-121.9168465,
Abington,1744 Abington Ct,95131.0,Santa Clara,37.37534553,-121.8720135,
Balsa,1744 Balsa Ave,95124.0,Santa Clara,37.27217918,-121.9132786,
Bevin Brook,1744 Bevin Brook Dr,95112.0,Santa Clara,37.31926735,-121.8546531,
Capitol,1055 N Capitol Ave 13,95133.0,Santa Clara,37.38348507,-121.8584793,
Birch Lake,1744 Birch Lake Ct,95131.0,Santa Clara,37.38489474,-121.892682,
Braddock,1744 Braddock Ct,95125.0,Santa Clara,37.29515148,-121.9231068,
Campbell,1744 Campbell Ave,95125.0,Santa Clara,37.28659874,-121.916981,
Cape Aston,1744 Cape Aston Ct,95133.0,Santa Clara,37.37310332,-121.870252,
Cape Misty,1744 Cape Misty Dr,95133.0,Santa Clara,37.37467693,-121.8709322,
Castlegate,1744 Castlegate Dr,95132.0,Santa Clara,37.40545431,-121.8614764,
Cathay,1744 Cathay Dr,95122.0,Santa Clara,37.33577631,-121.8307287,
Coralee,1744 Coralee Dr,95124.0,Santa Clara,37.24863576,-121.9125327,
Cortez,1744 Cortez Ave,95122.0,Santa Clara,37.33772713,-121.83926,
Creekstone,1744 Creekstone Cir,95133.0,Santa Clara,37.36855234,-121.8673021,
Branham,100 Branham Ln E Unit 1212,95111.0,Santa Clara,37.26823789,-121.8220768,
Capitol,1055 N Capitol Ave 130,95133.0,Santa Clara,37.38363368,-121.8597325,
Curtner,1744 Curtner Ave,95124.0,Santa Clara,37.27972934,-121.9128503,
Deer Creek,1744 Deer Creek Ct,95148.0,Santa Clara,37.35294691,-121.7930484,
William,1744 E William St,95116.0,Santa Clara,37.34868892,-121.8501935,
Fabian,1744 Fabian Dr,95124.0,Santa Clara,37.2734443,-121.9124697,
Fallbrook,1744 Fallbrook Ave,95130.0,Santa Clara,37.29047789,-121.9838861,
Flickinger,1744 Flickinger Ave,95131.0,Santa Clara,37.3934783,-121.8814619,
Frobisher,1744 Frobisher Way,95124.0,Santa Clara,37.27848619,-121.9131083,
Fumia,1744 Fumia Dr,95131.0,Santa Clara,37.38935699,-121.8980507,
Guadalupe,1744 Guadalupe Ave,95125.0,Santa Clara,37.30181754,-121.8807491,
Hallmark,1744 Hallmark Ln,95124.0,Santa Clara,37.26116987,-121.9110409,
Capitol,1055 N Capitol Ave 131,95133.0,Santa Clara,37.38358709,-121.8596335,
Harte,1744 Harte Dr,95124.0,Santa Clara,37.27506778,-121.9125165,
Hillsdale,1744 Hillsdale Ave,95124.0,Santa Clara,37.26513509,-121.9127686,
Home Gate,1744 Home Gate Dr,95148.0,Santa Clara,37.34097568,-121.8188584,
Hudson,1744 Hudson Dr,95124.0,Santa Clara,37.27681635,-121.9130475,
Junction,1744 Junction Ave,95112.0,Santa Clara,37.37551311,-121.903862,
June,1744 June Ave,95122.0,Santa Clara,37.33017839,-121.8369202,
Kyra,1744 Kyra Cir,95122.0,Santa Clara,37.31346203,-121.8157176,
Laurelwood,1744 Laurelwood Dr,95125.0,Santa Clara,37.28208288,-121.9116559,
Ledgewood,1744 Ledgewood Dr,95124.0,Santa Clara,37.26443584,-121.9124883,
Leeward,1744 Leeward Dr,95122.0,Santa Clara,37.34098514,-121.8219709,
Capitol,1055 N Capitol Ave 132,95133.0,Santa Clara,37.38356796,-121.8596295,
Locksley Park,1744 Locksley Park Dr,95132.0,Santa Clara,37.40672671,-121.859739,
Maysong,1744 Maysong Ct,95131.0,Santa Clara,37.37785127,-121.8743729,
McDaniel,1744 McDaniel Ave,95126.0,Santa Clara,37.33037302,-121.9298485,
Merrill,1744 Merrill Dr,95124.0,Santa Clara,37.23989342,-121.9125665,
Mirassou,1744 Mirassou Pl,95124.0,Santa Clara,37.24231339,-121.9106566,
Monrovia,1744 Monrovia Dr,95122.0,Santa Clara,37.31304627,-121.8151407,
Morrill,1744 Morrill Ave,95132.0,Santa Clara,37.40400663,-121.8661404,
1st,1744 N 1st St,95112.0,Santa Clara,37.37006338,-121.9158029,
Pine Hollow,1744 Pine Hollow Cir,95133.0,Santa Clara,37.36805156,-121.8616838,
Queens Crossing,1744 Queens Crossing Dr,95132.0,Santa Clara,37.40520345,-121.8637517,
Capitol,1055 N Capitol Ave 133,95133.0,Santa Clara,37.38347515,-121.8596292,
Quimby,1744 Quimby Rd,95122.0,Santa Clara,37.32893745,-121.8210123,
River Birch,1744 River Birch Dr,95131.0,Santa Clara,37.37415746,-121.8741844,
Ross,1744 Ross Cir Unit 1,95124.0,Santa Clara,37.25221758,-121.9106016,
Ross,1744 Ross Cir Unit 2,95124.0,Santa Clara,37.25221717,-121.9106359,
Ross,1744 Ross Cir Unit 3,95124.0,Santa Clara,37.25219012,-121.9106011,
Ross,1744 Ross Cir Unit 4,95124.0,Santa Clara,37.2521897,-121.9106354,
Sageland,1744 Sageland Dr,95131.0,Santa Clara,37.38038673,-121.8758285,
Capitol,1055 N Capitol Ave 134,95133.0,Santa Clara,37.38345559,-121.8596293,
Senter,1744 Senter Rd Unit 1,95112.0,Santa Clara,37.31782538,-121.8574905,
Senter,1744 Senter Rd Unit 2,95112.0,Santa Clara,37.3177954,-121.8575237,
Senter,1744 Senter Rd Unit 3,95112.0,Santa Clara,37.31777575,-121.8575568,
Senter,1744 Senter Rd Unit 4,95112.0,Santa Clara,37.31775332,-121.857598,
Senter,1744 Senter Rd Unit 5,95112.0,Santa Clara,37.31769539,-121.8575716,
Silverwood,1744 Silverwood Dr,95124.0,Santa Clara,37.26181,-121.9113898,
Springsong,1744 Springsong Dr,95131.0,Santa Clara,37.37639916,-121.873564,
Sundown,1744 Sundown Ln,95127.0,Santa Clara,37.34392602,-121.8141895,
Swanston,1744 Swanston Way,95132.0,Santa Clara,37.40525081,-121.870263,
Sweetbriar,1744 Sweetbriar Dr,95125.0,Santa Clara,37.28163523,-121.9106693,
Capitol,1055 N Capitol Ave 135,95133.0,Santa Clara,37.38340953,-121.8595491,
Valpico,1744 Valpico Dr,95124.0,Santa Clara,37.27446192,-121.9119474,
Flores,1744 Via Flores Ct,95132.0,Santa Clara,37.40144183,-121.877229,
Vistaglen,1744 Vistaglen Dr,95122.0,Santa Clara,37.33979921,-121.822842,
San Carlos,1744 W San Carlos St,95128.0,Santa Clara,37.32308924,-121.9234657,
Willow Creek,1744 Willow Creek Ct,95124.0,Santa Clara,37.2714998,-121.9119259,
Willow Lake,1744 Willow Lake Ln,95131.0,Santa Clara,37.38567373,-121.8913817,
Willowhurst,1744 Willowhurst Ave,95125.0,Santa Clara,37.2932107,-121.916854,
Adrian,1745 Adrian Way,95122.0,Santa Clara,37.33758885,-121.826373,
Arroyo De Oro,1745 Arroyo De Oro,95116.0,Santa Clara,37.35904801,-121.8586539,
Balsa,1745 Balsa Ave,95124.0,Santa Clara,37.27242981,-121.913846,
Capitol,1055 N Capitol Ave 136,95133.0,Santa Clara,37.38338973,-121.8595488,
Berryessa,1745 Berryessa Rd,95133.0,Santa Clara,37.37476722,-121.8728001,
Birch Lake,1745 Birch Lake Ct,95131.0,Santa Clara,37.38479308,-121.8928716,
Braddock,1745 Braddock Ct,95125.0,Santa Clara,37.29518296,-121.9231095,
Cambria,1745 Cambria Ct,95124.0,Santa Clara,37.25355033,-121.9128121,
Cape Aston,1745 Cape Aston Ct,95133.0,Santa Clara,37.37345004,-121.8705532,
Cape Misty,1745 Cape Misty Dr,95133.0,Santa Clara,37.3749399,-121.8713758,
Cheney,1745 Cheney Dr,95128.0,Santa Clara,37.30598409,-121.9240808,
Comstock,1745 Comstock Ln,95124.0,Santa Clara,37.27808351,-121.913313,
Coralee,1745 Coralee Dr,95124.0,Santa Clara,37.24897103,-121.912875,
Creek,1745 Creek Dr,95125.0,Santa Clara,37.3027475,-121.8830581,
Capitol,1055 N Capitol Ave 137,95133.0,Santa Clara,37.38338594,-121.8594059,
Creekstone,1745 Creekstone Cir,95133.0,Santa Clara,37.36880864,-121.8676059,
Curtner,1745 Curtner Ave,95124.0,Santa Clara,37.28015191,-121.9132552,
Daniel Maloney,1745 Daniel Maloney Dr,95121.0,Santa Clara,37.3052888,-121.8082917,
De Marietta,1745 De Marietta Ave Unit 1,95126.0,Santa Clara,37.30296772,-121.9248836,
De Marietta,1745 De Marietta Ave Unit 2,95126.0,Santa Clara,37.30294212,-121.9247442,
De Marietta,1745 De Marietta Ave Unit 3,95126.0,Santa Clara,37.30294212,-121.924779,
De Marietta,1745 De Marietta Ave Unit 4,95126.0,Santa Clara,37.30294212,-121.9248139,
Deer Creek,1745 Deer Creek Ct,95148.0,Santa Clara,37.35284082,-121.7934311,
Dobbin,1745 Dobbin Dr,95133.0,Santa Clara,37.36597715,-121.8667075,
Capitol,1055 N Capitol Ave 138,95133.0,Santa Clara,37.38336759,-121.8594085,
Dorrance,1745 Dorrance Dr,95125.0,Santa Clara,37.28501532,-121.9128747,
William,1745 E William St,95116.0,Santa Clara,37.34896104,-121.8503625,
Everglade,1745 Everglade Ave,95122.0,Santa Clara,37.33769487,-121.8388074,
Fabian,1745 Fabian Dr,95124.0,Santa Clara,37.2738826,-121.9127734,
Flickinger,1745 Flickinger Ave,95131.0,Santa Clara,37.39315471,-121.8818673,
Foxworthy,1745 Foxworthy Ave,95124.0,Santa Clara,37.26902429,-121.9128584,
Fruitdale,1745 Fruitdale Ave,95128.0,Santa Clara,37.31094309,-121.9230099,
Hallmark,1745 Hallmark Ln,95124.0,Santa Clara,37.26155777,-121.9112983,
Harmil,1745 Harmil Way,95125.0,Santa Clara,37.29891434,-121.8896178,
Hicks,1745 Hicks Ave,95125.0,Santa Clara,37.29264544,-121.9048271,
Capitol,1055 N Capitol Ave 139,95133.0,Santa Clara,37.38331548,-121.8593331,
Hillsdale,1745 Hillsdale Ave,95124.0,Santa Clara,37.2656165,-121.9131186,
Home Gate,1745 Home Gate Dr,95148.0,Santa Clara,37.34062734,-121.8188294,
Hudson,1745 Hudson Dr,95124.0,Santa Clara,37.27712805,-121.9134329,
June,1745 June Ave,95122.0,Santa Clara,37.33097174,-121.8389562,
Kyra,1745 Kyra Cir,95122.0,Santa Clara,37.31374096,-121.8160304,
Ledgewood,1745 Ledgewood Dr,95124.0,Santa Clara,37.26484141,-121.9128455,
Lincoln,1745 Lincoln Ave,95125.0,Santa Clara,37.29768419,-121.893378,
Loch Ness,1745 Loch Ness Way,95121.0,Santa Clara,37.3059028,-121.8087185,
Locksley Park,1745 Locksley Park Dr,95132.0,Santa Clara,37.40655875,-121.8602644,
Lorenzen,1745 Lorenzen Dr,95124.0,Santa Clara,37.27643679,-121.9129751,
Branham,100 Branham Ln E Unit 1213,95111.0,Santa Clara,37.26808741,-121.8220862,
Capitol,1055 N Capitol Ave 14,95133.0,Santa Clara,37.38346538,-121.8584793,
Maysong,1745 Maysong Ct,95131.0,Santa Clara,37.37823547,-121.8747115,
McDaniel,1745 McDaniel Ave,95126.0,Santa Clara,37.33077286,-121.9303262,
McKee,1745 McKee Rd Unit 21,95116.0,Santa Clara,37.35921605,-121.8596729,
McKee,1745 McKee Rd Unit 22,95116.0,Santa Clara,37.35921499,-121.8597077,
McKee,1745 McKee Rd Unit 23,95116.0,Santa Clara,37.35942925,-121.859866,
McKee,1745 McKee Rd Unit 24,95116.0,Santa Clara,37.35937169,-121.8597922,
McKee,1745 McKee Rd Unit 25,95116.0,Santa Clara,37.3594026,-121.8598311,
McKee,1745 McKee Rd Unit 26,95116.0,Santa Clara,37.35921712,-121.8596045,
McKee,1745 McKee Rd Unit 27,95116.0,Santa Clara,37.3594026,-121.8597962,
Capitol,1055 N Capitol Ave 140,95133.0,Santa Clara,37.38329319,-121.8593373,
McKee,1745 McKee Rd Unit 28,95116.0,Santa Clara,37.3592491,-121.8596957,
McKee,1745 McKee Rd Unit 29,95116.0,Santa Clara,37.35937275,-121.8597587,
McKee,1745 McKee Rd Unit 30,95116.0,Santa Clara,37.35942285,-121.8599008,
McKee,1745 McKee Rd Unit 31,95116.0,Santa Clara,37.35934077,-121.8598043,
McKee,1745 McKee Rd Unit 32,95116.0,Santa Clara,37.35937062,-121.8598955,
McKee,1745 McKee Rd Unit 33,95116.0,Santa Clara,37.35934184,-121.8597345,
McKee,1745 McKee Rd Unit 34,95116.0,Santa Clara,37.35939514,-121.8598995,
McKee,1745 McKee Rd Unit 35,95116.0,Santa Clara,37.35943032,-121.8598311,
McKee,1745 McKee Rd Unit 36,95116.0,Santa Clara,37.35937062,-121.859862,
McKee,1745 McKee Rd Unit 37,95116.0,Santa Clara,37.3592491,-121.8596608,
Capitol,1055 N Capitol Ave 141,95133.0,Santa Clara,37.38336608,-121.8592685,
McKee,1745 McKee Rd Unit 38,95116.0,Santa Clara,37.35921605,-121.859638,
McKee,1745 McKee Rd Unit 39,95116.0,Santa Clara,37.35940153,-121.8598646,
McKee,1745 McKee Rd Unit 40,95116.0,Santa Clara,37.35934077,-121.8597694,
McKee,1745 McKee Rd Unit 41,95116.0,Santa Clara,37.35937169,-121.8598271,
McKee,1745 McKee Rd Unit 42,95116.0,Santa Clara,37.35925017,-121.8596273,
Mirassou,1745 Mirassou Pl,95124.0,Santa Clara,37.24308185,-121.9107639,
Mocking Place,1745 Mocking Place Way,95121.0,Santa Clara,37.30179252,-121.8060161,
Mulberry,1745 Mulberry Ln,95125.0,Santa Clara,37.28336647,-121.9121924,
Naglee,1745 Naglee Ave,95126.0,Santa Clara,37.33012588,-121.9295271,
Oldtree,1745 Oldtree Ct,95131.0,Santa Clara,37.40017278,-121.8788462,
Capitol,1055 N Capitol Ave 142,95133.0,Santa Clara,37.38334817,-121.8592716,
Parkdale,1745 Parkdale Way,95127.0,Santa Clara,37.34578777,-121.8112112,
Parkview Green,1745 Parkview Green Cir,95131.0,Santa Clara,37.37866751,-121.8828851,
Patio,1745 Patio Dr,95125.0,Santa Clara,37.28892723,-121.9170295,
Quimby,1745 Quimby Rd,95122.0,Santa Clara,37.32904345,-121.8211183,
Ravens Place,1745 Ravens Place Way,95121.0,Santa Clara,37.30128973,-121.8053107,
Ross,1745 Ross Cir Unit 1,95124.0,Santa Clara,37.25241981,-121.9113086,
Ross,1745 Ross Cir Unit 2,95124.0,Santa Clara,37.2524194,-121.911343,
Ross,1745 Ross Cir Unit 3,95124.0,Santa Clara,37.25239235,-121.9113081,
Capitol,1055 N Capitol Ave 143,95133.0,Santa Clara,37.38344438,-121.8593387,
Ross,1745 Ross Cir Unit 4,95124.0,Santa Clara,37.25239194,-121.9113424,
San Tomas Aquino,1745 San Tomas Aquino Rd,95130.0,Santa Clara,37.29118302,-121.9769278,
Saratoga,1745 Saratoga Ave,95129.0,Santa Clara,37.29056054,-121.994693,
Saratoga,1745 Saratoga Ave Ste 200,95129.0,Santa Clara,37.29065491,-121.9947416,
Saratoga,1745 Saratoga Ave Ste 203,95129.0,Santa Clara,37.29065447,-121.994776,
Saratoga,1745 Saratoga Ave Ste 205,95129.0,Santa Clara,37.29062789,-121.9947067,
Saratoga,1745 Saratoga Ave Ste 208,95129.0,Santa Clara,37.29062745,-121.9947411,
Saratoga,1745 Saratoga Ave Ste 212,95129.0,Santa Clara,37.29062701,-121.9947754,
Saratoga,1745 Saratoga Ave Ste B,95129.0,Santa Clara,37.29060043,-121.9947061,
Saratoga,1745 Saratoga Ave Ste C,95129.0,Santa Clara,37.29059999,-121.9947405,
Capitol,1055 N Capitol Ave 144,95133.0,Santa Clara,37.38342269,-121.8593423,
Saratoga,1745 Saratoga Ave Ste D,95129.0,Santa Clara,37.29059955,-121.9947749,
Story,1745 Story Rd,95122.0,Santa Clara,37.34111113,-121.843097,
Swanston,1745 Swanston Way,95132.0,Santa Clara,37.40565197,-121.8705575,
Sweetbriar,1745 Sweetbriar Dr,95125.0,Santa Clara,37.28160411,-121.9112098,
Tampa,1745 Tampa Way,95122.0,Santa Clara,37.33114048,-121.8361948,
Technology,1745 Technology Dr,95110.0,Santa Clara,37.36799508,-121.9201047,
Technology,1745 Technology Dr 200,95110.0,Santa Clara,37.36758504,-121.920455,
Technology,1745 Technology Dr 700,95110.0,Santa Clara,37.36758462,-121.9204894,
Technology,1745 Technology Dr 800,95110.0,Santa Clara,37.36758421,-121.9205238,
Villa Stone,1745 Villa Stone Dr,95125.0,Santa Clara,37.30553219,-121.8765881,
Capitol,1055 N Capitol Ave 145,95133.0,Santa Clara,37.38345936,-121.8594722,
Vistaglen,1745 Vistaglen Dr,95122.0,Santa Clara,37.34013669,-121.8232161,
San Carlos,1745 W San Carlos St,95128.0,Santa Clara,37.32389843,-121.9231425,
Willow Creek,1745 Willow Creek Ct,95124.0,Santa Clara,37.27109459,-121.9124224,
Abington,1746 Abington Ct,95131.0,Santa Clara,37.37540212,-121.8719707,
Aprilsong,1746 Aprilsong Ct,95131.0,Santa Clara,37.37731929,-121.8737835,
Arroyo De Oro,1746 Arroyo De Oro,95116.0,Santa Clara,37.3587559,-121.8583474,
Barberry,1746 Barberry Ln,95122.0,Santa Clara,37.31413318,-121.8159168,
Berrywood,1746 Berrywood Dr,95133.0,Santa Clara,37.35963004,-121.8603527,
Bethany,1746 Bethany Ave,95132.0,Santa Clara,37.40238323,-121.8721686,
Bevin Brook,1746 Bevin Brook Dr,95112.0,Santa Clara,37.31920095,-121.8546392,
Capitol,1055 N Capitol Ave 146,95133.0,Santa Clara,37.3834403,-121.8594752,
Birch Lake,1746 Birch Lake Ct,95131.0,Santa Clara,37.38490817,-121.8926267,
Braddock,1746 Braddock Ct,95125.0,Santa Clara,37.29522137,-121.9231102,
Cambria,1746 Cambria Ct,95124.0,Santa Clara,37.25315006,-121.9125625,
Cape Coral,1746 Cape Coral Dr,95133.0,Santa Clara,37.37257964,-121.8696391,
Cheney,1746 Cheney Dr,95128.0,Santa Clara,37.30565086,-121.9236997,
Commodore,1746 Commodore Dr,95133.0,Santa Clara,37.37118277,-121.8685669,
Comstock,1746 Comstock Ln,95124.0,Santa Clara,37.27765621,-121.9131022,
Cortez,1746 Cortez Ave,95122.0,Santa Clara,37.33777079,-121.839195,
Crane Ridge,1746 Crane Ridge Ct,95121.0,Santa Clara,37.2954232,-121.8008302,
Creek,1746 Creek Dr,95125.0,Santa Clara,37.3028634,-121.8824128,
Capitol,1055 N Capitol Ave 147,95133.0,Santa Clara,37.38352406,-121.8595547,
Del Paso,1746 Del Paso Ave,95124.0,Santa Clara,37.25385071,-121.9125081,
Dolores,1746 Dolores Dr,95125.0,Santa Clara,37.29872612,-121.9166147,
San Antonio,1746 E San Antonio St,95116.0,Santa Clara,37.35066627,-121.8505737,
Emory,1746 Emory St,95126.0,Santa Clara,37.33102066,-121.9306602,
Fanwood,1746 Fanwood Ct,95133.0,Santa Clara,37.37385771,-121.8703207,
Foxworthy,1746 Foxworthy Ave,95124.0,Santa Clara,37.26861996,-121.9131835,
Fumia,1746 Fumia Ct,95131.0,Santa Clara,37.38968797,-121.8975577,
Galewood,1746 Galewood Ct,95133.0,Santa Clara,37.36069844,-121.8613915,
Hamilton,1746 Hamilton Ave,95125.0,Santa Clara,37.29409857,-121.9168675,
Hester,1746 Hester Ave,95128.0,Santa Clara,37.32491657,-121.9245488,
Capitol,1055 N Capitol Ave 148,95133.0,Santa Clara,37.38350467,-121.8595522,
Hicks,1746 Hicks Ave,95125.0,Santa Clara,37.29281781,-121.9042557,
Hillsdale,1746 Hillsdale Ave,95124.0,Santa Clara,37.26507736,-121.9129683,
Home Gate,1746 Home Gate Dr,95148.0,Santa Clara,37.34093211,-121.8189519,
Hudson,1746 Hudson Dr,95124.0,Santa Clara,37.27671649,-121.913215,
Jonathan,1746 Jonathan Ave,95125.0,Santa Clara,37.30006096,-121.8874811,
Junction,1746 Junction Ave,95112.0,Santa Clara,37.37661257,-121.9045456,
Junction,1746 Junction Ave Ste A,95112.0,Santa Clara,37.37636994,-121.9045475,
Junction,1746 Junction Ave Ste C,95112.0,Santa Clara,37.37636953,-121.9045819,
Junction,1746 Junction Ave Ste F,95112.0,Santa Clara,37.37634289,-121.9045125,
Junction,1746 Junction Ave Ste G,95112.0,Santa Clara,37.37634248,-121.904547,
Branham,100 Branham Ln E Unit 1214,95111.0,Santa Clara,37.26817386,-121.8219856,
Capitol,1055 N Capitol Ave 149,95133.0,Santa Clara,37.38363193,-121.8595465,
Junction,1746 Junction Ave Ste H,95112.0,Santa Clara,37.37634207,-121.9045814,
Kammerer,1746 Kammerer Ave,95116.0,Santa Clara,37.34728283,-121.8490001,
Ledgewood,1746 Ledgewood Dr,95124.0,Santa Clara,37.26438186,-121.9127328,
Lorenzen,1746 Lorenzen Dr,95124.0,Santa Clara,37.27601243,-121.912671,
Lucretia,1746 Lucretia Ave,95122.0,Santa Clara,37.32283938,-121.8497639,
Manitou,1746 Manitou Ct,95120.0,Santa Clara,37.23319888,-121.8937204,
Margaret,1746 Margaret St,95116.0,Santa Clara,37.34663567,-121.8483025,
Marigold,1746 Marigold Ct,95133.0,Santa Clara,37.36016424,-121.8608721,
Mendenhall,1746 Mendenhall Dr,95130.0,Santa Clara,37.29092979,-121.9743248,
Midfield,1746 Midfield Ave,95122.0,Santa Clara,37.32863,-121.8399788,
Capitol,1055 N Capitol Ave 15,95133.0,Santa Clara,37.38342865,-121.8585742,
Minas De Oro,1746 Minas De Oro,95116.0,Santa Clara,37.35833317,-121.8576123,
Mocking Place,1746 Mocking Place Way,95121.0,Santa Clara,37.30145365,-121.8055629,
Oldtree,1746 Oldtree Ct,95131.0,Santa Clara,37.40061517,-121.8785214,
Parkdale,1746 Parkdale Way,95127.0,Santa Clara,37.34599907,-121.8107503,
Quimby,1746 Quimby Rd,95122.0,Santa Clara,37.32925044,-121.8208433,
Ridgetree,1746 Ridgetree Way,95131.0,Santa Clara,37.39899547,-121.877667,
River Birch,1746 River Birch Dr,95131.0,Santa Clara,37.37421192,-121.8741175,
Scott,1746 Scott St,95128.0,Santa Clara,37.31946516,-121.9233977,
Septembersong,1746 Septembersong Ct,95131.0,Santa Clara,37.37856594,-121.8746989,
Capitol,1055 N Capitol Ave 150,95133.0,Santa Clara,37.38361183,-121.8595437,
Shasta,1746 Shasta Ave,95128.0,Santa Clara,37.32463578,-121.9233582,
Silvertree,1746 Silvertree Dr,95131.0,Santa Clara,37.39280036,-121.8816731,
King,1746 S King Rd,95122.0,Santa Clara,37.33207254,-121.8350709,
The Alameda,1746 The Alameda,95126.0,Santa Clara,37.33798704,-121.9188259,
Vintner,1746 Vintner Way,95124.0,Santa Clara,37.24539368,-121.9127598,
Vistaglen,1746 Vistaglen Dr,95122.0,Santa Clara,37.33970121,-121.8229903,
Vollmer,1746 Vollmer Way,95116.0,Santa Clara,37.34599291,-121.8476285,
Walnut Grove,1746 Walnut Grove Ave,95126.0,Santa Clara,37.33632183,-121.9345005,
Wayne,1746 Wayne Cir,95131.0,Santa Clara,37.38809703,-121.8969339,
Westhaven,1746 Westhaven Dr,95132.0,Santa Clara,37.40644253,-121.8606112,
Capitol,1055 N Capitol Ave 151,95133.0,Santa Clara,37.38371332,-121.8596386,
Wickham,1746 Wickham Rd,95132.0,Santa Clara,37.40415791,-121.8636253,
Willow Creek,1746 Willow Creek Ct,95124.0,Santa Clara,37.27126628,-121.9117655,
Willow Lake,1746 Willow Lake Ln,95131.0,Santa Clara,37.38570015,-121.8913382,
Almaden,1747 Almaden Rd,95125.0,Santa Clara,37.30292792,-121.8798779,
Almaden,1747 Almaden Rd A,95125.0,Santa Clara,37.30321597,-121.8793533,
Almaden,1747 Almaden Rd B,95125.0,Santa Clara,37.30318891,-121.8793184,
Almaden,1747 Almaden Rd C,95125.0,Santa Clara,37.30318851,-121.8793528,
Almaden,1747 Almaden Rd D,95125.0,Santa Clara,37.30321637,-121.879319,
Alum Rock,1747 Alum Rock Ave,95116.0,Santa Clara,37.35377215,-121.8544673,
Aprilsong,1747 Aprilsong Ct,95131.0,Santa Clara,37.37769177,-121.8740747,
Capitol,1055 N Capitol Ave 152,95133.0,Santa Clara,37.38369382,-121.8596387,
Elisa,1747 Avenida Elisa,95131.0,Santa Clara,37.38954648,-121.891382,
Bagpipe,1747 Bagpipe Way,95121.0,Santa Clara,37.30656928,-121.8099335,
Berrywood,1747 Berrywood Dr,95133.0,Santa Clara,37.35995645,-121.8606399,
Birch Lake,1747 Birch Lake Ct,95131.0,Santa Clara,37.38478264,-121.8929226,
Blossom Hill,1747 Blossom Hill Rd,95124.0,Santa Clara,37.23651477,-121.9127287,
Braddock,1747 Braddock Ct,95125.0,Santa Clara,37.29525284,-121.9231142,
Camargo,1747 Camargo Dr,95132.0,Santa Clara,37.40273005,-121.8692503,
Cape Coral,1747 Cape Coral Dr,95133.0,Santa Clara,37.37294823,-121.869869,
Cape Horn,1747 Cape Horn Pl,95133.0,Santa Clara,37.37079346,-121.8681371,
Capitol,1055 N Capitol Ave 153,95133.0,Santa Clara,37.38369033,-121.8593404,
Cassiar,1747 Cassiar Dr,95130.0,Santa Clara,37.29090185,-121.975835,
Cherry,1747 Cherry Ave,95125.0,Santa Clara,37.29334335,-121.9030639,
Clovis,1747 Clovis Ave,95124.0,Santa Clara,37.23914762,-121.9127866,
Comstock,1747 Comstock Ln,95124.0,Santa Clara,37.27800462,-121.9134857,
Cottle,1747 Cottle Ave,95125.0,Santa Clara,37.29495477,-121.8988413,
Crane Ridge,1747 Crane Ridge Ct,95121.0,Santa Clara,37.29590323,-121.8009603,
Creekstone,1747 Creekstone Cir,95133.0,Santa Clara,37.36886542,-121.8675112,
Curtner,1747 Curtner Ave,95124.0,Santa Clara,37.28003399,-121.9134099,
Dolores,1747 Dolores Dr,95125.0,Santa Clara,37.29927527,-121.9166484,
Dorrance,1747 Dorrance Dr,95125.0,Santa Clara,37.28495627,-121.9131521,
Capitol,1055 N Capitol Ave 154,95133.0,Santa Clara,37.38366951,-121.8593404,
William,1747 E William St,95116.0,Santa Clara,37.34894052,-121.8504052,
El Codo,1747 El Codo Way,95124.0,Santa Clara,37.27328276,-121.9136625,
Emory,1747 Emory St,95126.0,Santa Clara,37.33142803,-121.931118,
Fallbrook,1747 Fallbrook Ave,95130.0,Santa Clara,37.29074146,-121.9843163,
Fanwood,1747 Fanwood Ct,95133.0,Santa Clara,37.37432242,-121.8708297,
Flint Creek,1747 Flint Creek Way,95148.0,Santa Clara,37.35303883,-121.7913876,
Frobisher,1747 Frobisher Way,95124.0,Santa Clara,37.27886014,-121.9134354,
Fumia,1747 Fumia Ct,95131.0,Santa Clara,37.38947579,-121.8978935,
Galewood,1747 Galewood Ct,95133.0,Santa Clara,37.36103838,-121.8617229,
Harte,1747 Harte Dr,95124.0,Santa Clara,37.27540596,-121.9130266,
Capitol,1055 N Capitol Ave 155,95133.0,Santa Clara,37.38375343,-121.8592567,
Hayford,1747 Hayford Dr,95130.0,Santa Clara,37.2909404,-121.9739819,
Home Gate,1747 Home Gate Dr,95148.0,Santa Clara,37.34057823,-121.8189364,
Hopkins,1747 Hopkins Dr,95122.0,Santa Clara,37.3356873,-121.8302415,
Laurelwood,1747 Laurelwood Dr,95125.0,Santa Clara,37.28242204,-121.9121402,
Ledgewood,1747 Ledgewood Dr,95124.0,Santa Clara,37.26478109,-121.9130369,
Leeward,1747 Leeward Dr,95122.0,Santa Clara,37.34064811,-121.8223615,
Lucca,1747 Lucca Pl,95138.0,Santa Clara,37.27816068,-121.7792263,
Margaret,1747 Margaret St,95116.0,Santa Clara,37.34703419,-121.8487286,
Marigold,1747 Marigold Ct,95133.0,Santa Clara,37.36049728,-121.8611946,
Maykirk,1747 Maykirk Ct,95124.0,Santa Clara,37.28520955,-121.9143424,
Capitol,1055 N Capitol Ave 156,95133.0,Santa Clara,37.38373497,-121.8592549,
Minas De Oro,1747 Minas De Oro,95116.0,Santa Clara,37.35852956,-121.8580748,
Mossbrook,1747 Mossbrook Ave,95130.0,Santa Clara,37.29017503,-121.9837774,
Mt Rushmore,1747 Mt Rushmore Dr,95127.0,Santa Clara,37.34948674,-121.8033637,
1st,1747 N 1st St,95110.0,Santa Clara,37.37021927,-121.9164841,
Parkview Green,1747 Parkview Green Cir,95131.0,Santa Clara,37.3786997,-121.8828877,
Pine Hollow,1747 Pine Hollow Cir,95133.0,Santa Clara,37.36764208,-121.8613798,
Quimby,1747 Quimby Rd,95122.0,Santa Clara,37.32914211,-121.8207373,
Capitol,1055 N Capitol Ave 157,95133.0,Santa Clara,37.38375432,-121.8591158,
Ridgetree,1747 Ridgetree Way,95131.0,Santa Clara,37.39864237,-121.8781771,
Ross,1747 Ross Cir Unit 1,95124.0,Santa Clara,37.25231867,-121.9111914,
Ross,1747 Ross Cir Unit 2,95124.0,Santa Clara,37.25229162,-121.9111566,
Ross,1747 Ross Cir Unit 3,95124.0,Santa Clara,37.2522912,-121.9111909,
Ross,1747 Ross Cir Unit 4,95124.0,Santa Clara,37.25231908,-121.9111571,
San Tomas Aquino,1747 San Tomas Aquino Rd,95130.0,Santa Clara,37.29113393,-121.9768947,
Septembersong,1747 Septembersong Ct,95131.0,Santa Clara,37.37893559,-121.8751124,
Seville,1747 Seville Way,95131.0,Santa Clara,37.3793167,-121.8746277,
Shasta,1747 Shasta Ave,95128.0,Santa Clara,37.32477296,-121.9240431,
Branham,100 Branham Ln E Unit 1301,95111.0,Santa Clara,37.26853139,-121.8227044,
Capitol,1055 N Capitol Ave 158,95133.0,Santa Clara,37.38373538,-121.8591153,
Silverwood,1747 Silverwood Dr,95124.0,Santa Clara,37.26213006,-121.9117613,
King,1747 S King Rd,95122.0,Santa Clara,37.33159152,-121.8354529,
Sweetbriar,1747 Sweetbriar Dr,95125.0,Santa Clara,37.28138908,-121.9110557,
Tustin,1747 Tustin Dr,95122.0,Santa Clara,37.31286983,-121.8148953,
Valpico,1747 Valpico Dr,95124.0,Santa Clara,37.27486652,-121.9123527,
Cortina,1747 Via Cortina,95120.0,Santa Clara,37.22163048,-121.9055668,
Vistaglen,1747 Vistaglen Dr,95122.0,Santa Clara,37.34001729,-121.8233613,
Vollmer,1747 Vollmer Way,95116.0,Santa Clara,37.34638306,-121.8480462,
Bagpipe,1748 Bagpipe Way,95121.0,Santa Clara,37.30680738,-121.8094539,
Balsa,1748 Balsa Ave,95124.0,Santa Clara,37.27206261,-121.9135622,
Capitol,1055 N Capitol Ave 159,95133.0,Santa Clara,37.38381936,-121.8590097,
Bevin Brook,1748 Bevin Brook Dr,95112.0,Santa Clara,37.31913553,-121.8546196,
Birch Lake,1748 Birch Lake Ct,95131.0,Santa Clara,37.38493517,-121.8925775,
Braddock,1748 Braddock Ct,95125.0,Santa Clara,37.29529391,-121.9231115,
Camargo,1748 Camargo Dr,95132.0,Santa Clara,37.40301912,-121.8687279,
Cape Misty,1748 Cape Misty Dr,95133.0,Santa Clara,37.37484805,-121.870805,
Cassiar,1748 Cassiar Dr,95130.0,Santa Clara,37.29089955,-121.9752677,
Cooley,1748 Cooley Dr,95116.0,Santa Clara,37.3485045,-121.8489602,
Coralee,1748 Coralee Dr,95124.0,Santa Clara,37.2485851,-121.9128596,
Creekstone,1748 Creekstone Cir,95133.0,Santa Clara,37.36860697,-121.8672248,
Curtner,1748 Curtner Ave,95124.0,Santa Clara,37.27959724,-121.9130104,
Capitol,1055 N Capitol Ave 16,95133.0,Santa Clara,37.38340779,-121.8585799,
Dalton,1748 Dalton Pl,95124.0,Santa Clara,37.24351112,-121.9102739,
De Marietta,1748 De Marietta Ave Unit 1,95126.0,Santa Clara,37.30258795,-121.924374,
De Marietta,1748 De Marietta Ave Unit 2,95126.0,Santa Clara,37.30258795,-121.9244116,
De Marietta,1748 De Marietta Ave Unit 3,95126.0,Santa Clara,37.30256235,-121.924374,
De Marietta,1748 De Marietta Ave Unit 4,95126.0,Santa Clara,37.30256235,-121.9244062,
Dorrance,1748 Dorrance Dr,95125.0,Santa Clara,37.28447524,-121.9131281,
Duvall,1748 Duvall Dr,95130.0,Santa Clara,37.29030901,-121.9852884,
Ellen,1748 Ellen Ave,95125.0,Santa Clara,37.29961078,-121.8882374,
Fallbrook,1748 Fallbrook Ave,95130.0,Santa Clara,37.29034577,-121.9840224,
Capitol,1055 N Capitol Ave 160,95133.0,Santa Clara,37.38379852,-121.8590094,
Flickinger,1748 Flickinger Ave,95131.0,Santa Clara,37.39358324,-121.8816473,
Frobisher,1748 Frobisher Way,95124.0,Santa Clara,37.27839516,-121.9132838,
Glen Una,1748 Glen Una Ave,95125.0,Santa Clara,37.29872684,-121.8897984,
Hallmark,1748 Hallmark Ln,95124.0,Santa Clara,37.2611085,-121.9112578,
Hanchett,1748 Hanchett Ave,95128.0,Santa Clara,37.32465566,-121.9219357,
Harte,1748 Harte Dr,95124.0,Santa Clara,37.27497519,-121.912703,
Hayford,1748 Hayford Dr,95130.0,Santa Clara,37.29093595,-121.973419,
Hester,1748 Hester Ave,95128.0,Santa Clara,37.32488204,-121.9245649,
Hillsdale,1748 Hillsdale Ave,95124.0,Santa Clara,37.26501681,-121.9131807,
Home Gate,1748 Home Gate Dr,95148.0,Santa Clara,37.34089046,-121.8190479,
Capitol,1055 N Capitol Ave 161,95133.0,Santa Clara,37.38392458,-121.8589769,
Indigo Oak,1748 Indigo Oak Ln,95121.0,Santa Clara,37.29655876,-121.8016214,
Jonathan,1748 Jonathan Ave,95125.0,Santa Clara,37.29994219,-121.8873834,
Junction,1748 Junction Ave,95112.0,Santa Clara,37.37750729,-121.9041587,
Laurelwood,1748 Laurelwood Dr,95125.0,Santa Clara,37.28190867,-121.9119162,
Ledgewood,1748 Ledgewood Dr,95124.0,Santa Clara,37.264318,-121.9129305,
Marcy Lynn,1748 Marcy Lynn Ct,95124.0,Santa Clara,37.2443568,-121.9111221,
Marlyn,1748 Marlyn Way,95125.0,Santa Clara,37.29553489,-121.8972858,
Maykirk,1748 Maykirk Ct,95124.0,Santa Clara,37.28486241,-121.9141239,
Maysong,1748 Maysong Ct,95131.0,Santa Clara,37.37798764,-121.8742492,
Merrill,1748 Merrill Dr,95124.0,Santa Clara,37.23994526,-121.9128069,
Capitol,1055 N Capitol Ave 162,95133.0,Santa Clara,37.38390567,-121.8589731,
Morrill,1748 Morrill Ave,95132.0,Santa Clara,37.40414629,-121.8662265,
Mt Rushmore,1748 Mt Rushmore Dr,95127.0,Santa Clara,37.34976836,-121.8029312,
Oldtree,1748 Oldtree Ct,95131.0,Santa Clara,37.40074034,-121.878683,
Olivetree,1748 Olivetree Dr,95131.0,Santa Clara,37.39809548,-121.8787861,
Park,1748 Park Ave,95126.0,Santa Clara,37.33469567,-121.9246652,
Patio,1748 Patio Dr,95125.0,Santa Clara,37.28842326,-121.9169748,
Queens Crossing,1748 Queens Crossing Dr,95132.0,Santa Clara,37.40533609,-121.8638863,
Quimby,1748 Quimby Rd,95122.0,Santa Clara,37.32903378,-121.8206313,
Capitol,1055 N Capitol Ave 163,95133.0,Santa Clara,37.38397731,-121.8588924,
Ravens Place,1748 Ravens Place Way,95121.0,Santa Clara,37.30099307,-121.8049171,
Ringwood,1748 Ringwood Ave,95131.0,Santa Clara,37.3883528,-121.8932441,
River Birch,1748 River Birch Dr,95131.0,Santa Clara,37.37427718,-121.8740191,
Sageland,1748 Sageland Dr,95131.0,Santa Clara,37.38052855,-121.8756906,
San Tomas Aquino,1748 San Tomas Aquino Rd,95130.0,Santa Clara,37.29095036,-121.9762558,
Shady Creek,1748 Shady Creek Ct,95148.0,Santa Clara,37.35296256,-121.7920058,
Silver Creek,1748 Silver Creek Ct,95121.0,Santa Clara,37.30011308,-121.8036069,
Silvertree,1748 Silvertree Dr,95131.0,Santa Clara,37.39289969,-121.8815372,
Silverwood,1748 Silverwood Dr,95124.0,Santa Clara,37.26175819,-121.911616,
Capitol,1055 N Capitol Ave 164,95133.0,Santa Clara,37.38395838,-121.8588901,
Sweetbriar,1748 Sweetbriar Dr,95125.0,Santa Clara,37.28143273,-121.9104968,
Tampa,1748 Tampa Way,95122.0,Santa Clara,37.33141643,-121.835726,
Trudean,1748 Trudean Way,95132.0,Santa Clara,37.40273403,-121.8696244,
Tustin,1748 Tustin Dr,95122.0,Santa Clara,37.31253933,-121.8145435,
Valpico,1748 Valpico Dr,95124.0,Santa Clara,37.2743732,-121.9121066,
Flores,1748 Via Flores Ct,95132.0,Santa Clara,37.40157805,-121.8772634,
Vistaglen,1748 Vistaglen Dr,95122.0,Santa Clara,37.3395958,-121.8231475,
Willow Lake,1748 Willow Lake Ln,95131.0,Santa Clara,37.38574512,-121.8915292,
Alum Rock,1749 Alum Rock Ave,95116.0,Santa Clara,37.35377374,-121.8543297,
Capitol,1055 N Capitol Ave 165,95133.0,Santa Clara,37.38404335,-121.858956,
Balsa,1749 Balsa Ave,95124.0,Santa Clara,37.27230772,-121.9139981,
Braddock,1749 Braddock Ct,95125.0,Santa Clara,37.29532272,-121.9231162,
Cambria,1749 Cambria Ct,95124.0,Santa Clara,37.25346145,-121.9129413,
Cape Misty,1749 Cape Misty Dr,95133.0,Santa Clara,37.37507811,-121.8712549,
Cheney,1749 Cheney Dr,95128.0,Santa Clara,37.30583682,-121.9242216,
Clarence,1749 Clarence Ct,95124.0,Santa Clara,37.28452441,-121.9140431,
Commodore,1749 Commodore Dr,95133.0,Santa Clara,37.37165793,-121.8686659,
Cooley,1749 Cooley Dr,95116.0,Santa Clara,37.34881775,-121.849121,
Creekstone,1749 Creekstone Cir,95133.0,Santa Clara,37.36892075,-121.8674351,
Crucero,1749 Crucero Dr,95122.0,Santa Clara,37.32788969,-121.8434838,
Capitol,1055 N Capitol Ave 166,95133.0,Santa Clara,37.38402449,-121.8589505,
Curtner,1749 Curtner Ave,95124.0,Santa Clara,37.27991117,-121.9135791,
Dorrance,1749 Dorrance Dr,95125.0,Santa Clara,37.28474128,-121.9131679,
Duvall,1749 Duvall Dr,95130.0,Santa Clara,37.29063727,-121.985714,
El Dorado,1749 El Dorado Ave,95126.0,Santa Clara,37.33488397,-121.9343366,
Ellen,1749 Ellen Ave,95125.0,Santa Clara,37.29939301,-121.8887386,
Fabian,1749 Fabian Dr,95124.0,Santa Clara,37.27378485,-121.9129705,
Flickinger,1749 Flickinger Ave,95131.0,Santa Clara,37.39328239,-121.8820035,
Glen Una,1749 Glen Una Ave,95125.0,Santa Clara,37.29854061,-121.890266,
Hallmark,1749 Hallmark Ln,95124.0,Santa Clara,37.26150526,-121.9114706,
Hanchett,1749 Hanchett Ave,95128.0,Santa Clara,37.32463401,-121.9226832,
Branham,100 Branham Ln E Unit 1302,95111.0,Santa Clara,37.26861784,-121.8226052,
Capitol,1055 N Capitol Ave 167,95133.0,Santa Clara,37.38397624,-121.8590512,
Harmil,1749 Harmil Way,95125.0,Santa Clara,37.29877385,-121.8895129,
Harte,1749 Harte Dr,95124.0,Santa Clara,37.27532132,-121.9131803,
Hester,1749 Hester Ave Unit 1,95128.0,Santa Clara,37.32499477,-121.9253678,
Hester,1749 Hester Ave Unit 10,95128.0,Santa Clara,37.32498606,-121.9253442,
Hester,1749 Hester Ave Unit 11,95128.0,Santa Clara,37.32498522,-121.925413,
Hester,1749 Hester Ave Unit 12,95128.0,Santa Clara,37.32504056,-121.9253797,
Hester,1749 Hester Ave Unit 14,95128.0,Santa Clara,37.32501268,-121.9254135,
Hester,1749 Hester Ave Unit 2,95128.0,Santa Clara,37.32503973,-121.9254485,
Hester,1749 Hester Ave Unit 3,95128.0,Santa Clara,37.3249848,-121.9254474,
Capitol,1055 N Capitol Ave 168,95133.0,Santa Clara,37.38395543,-121.8590507,
Hester,1749 Hester Ave Unit 4,95128.0,Santa Clara,37.32504014,-121.9254141,
Hester,1749 Hester Ave Unit 5,95128.0,Santa Clara,37.32501226,-121.9254479,
Hester,1749 Hester Ave Unit 6,95128.0,Santa Clara,37.32498564,-121.9253786,
Hester,1749 Hester Ave Unit 7,95128.0,Santa Clara,37.32501352,-121.9253448,
Hester,1749 Hester Ave Unit 8,95128.0,Santa Clara,37.3250131,-121.9253792,
Hester,1749 Hester Ave Unit 9,95128.0,Santa Clara,37.32505438,-121.9254354,
Hudson,1749 Hudson Dr,95124.0,Santa Clara,37.27702454,-121.9136154,
Indigo Oak,1749 Indigo Oak Ln,95121.0,Santa Clara,37.29690059,-121.8019358,
Isabel,1749 Isabel Dr,95125.0,Santa Clara,37.30092743,-121.9167235,
Jonathan,1749 Jonathan Ave,95125.0,Santa Clara,37.29975077,-121.8879444,
Capitol,1055 N Capitol Ave 169,95133.0,Santa Clara,37.38388046,-121.8590845,
King,1749 King Ct,95122.0,Santa Clara,37.31249243,-121.8140454,
Ledgewood,1749 Ledgewood Dr,95124.0,Santa Clara,37.26472234,-121.9132319,
Lorenzen,1749 Lorenzen Dr,95124.0,Santa Clara,37.27632177,-121.9131564,
Maysong,1749 Maysong Ct,95131.0,Santa Clara,37.37834882,-121.8745314,
Mendenhall,1749 Mendenhall Dr,95130.0,Santa Clara,37.29091354,-121.9749136,
Mt Pleasant,1749 Mt Pleasant Rd,95148.0,Santa Clara,37.35166535,-121.7991184,
Old Piedmont,1749 Old Piedmont Rd,95132.0,Santa Clara,37.41259717,-121.8513364,
Park,1749 Park Ave,95126.0,Santa Clara,37.334309,-121.9248519,
Parkview Green,1749 Parkview Green Cir,95131.0,Santa Clara,37.3787361,-121.882836,
Capitol,1055 N Capitol Ave 17,95133.0,Santa Clara,37.38337082,-121.8585111,
Quimby,1749 Quimby Rd,95122.0,Santa Clara,37.32892544,-121.8205253,
Ringwood,1749 Ringwood Ave,95131.0,Santa Clara,37.38807066,-121.8937239,
Saratoga,1749 Saratoga Ave,95129.0,Santa Clara,37.29040029,-121.9941139,
Seville,1749 Seville Way,95131.0,Santa Clara,37.37945484,-121.8747864,
Shady Creek,1749 Shady Creek Ct,95148.0,Santa Clara,37.35288077,-121.7924137,
10th,1749 S 10th St,95112.0,Santa Clara,37.31466507,-121.8617108,
Springsong,1749 Springsong Dr,95131.0,Santa Clara,37.37674187,-121.8739332,
Valpico,1749 Valpico Dr,95124.0,Santa Clara,37.2747737,-121.912558,
Vistaglen,1749 Vistaglen Dr,95122.0,Santa Clara,37.33989763,-121.8235301,
Capitol,1055 N Capitol Ave 170,95133.0,Santa Clara,37.3838615,-121.8590851,
San Carlos,1749 W San Carlos St,95128.0,Santa Clara,37.32390127,-121.9232336,
Westhaven,1749 Westhaven Dr,95132.0,Santa Clara,37.40628843,-121.8611273,
Acacia,175 Acacia St,95110.0,Santa Clara,37.34600092,-121.9019529,
Alexander,175 Alexander Ave Unit 1,95116.0,Santa Clara,37.36492228,-121.8419976,
Alexander,175 Alexander Ave Unit 2,95116.0,Santa Clara,37.36492189,-121.842032,
Alexander,175 Alexander Ave Unit 3,95116.0,Santa Clara,37.36492149,-121.8420664,
Alexander,175 Alexander Ave Unit 4,95116.0,Santa Clara,37.3649211,-121.8421008,
Arroyo,175 Arroyo Way,95112.0,Santa Clara,37.34118201,-121.8714696,
Espana,175 Avenida Espana,95139.0,Santa Clara,37.22269232,-121.7678792,
Capitol,1055 N Capitol Ave 171,95133.0,Santa Clara,37.3838064,-121.8591772,
Bangor,175 Bangor Ave,95123.0,Santa Clara,37.24834245,-121.8107773,
Capitol,1055 N Capitol Ave 172,95133.0,Santa Clara,37.38378552,-121.8591804,
Capitol,1055 N Capitol Ave 173,95133.0,Santa Clara,37.38381326,-121.8593087,
Capitol,1055 N Capitol Ave 174,95133.0,Santa Clara,37.38379378,-121.8593137,
Capitol,1055 N Capitol Ave 175,95133.0,Santa Clara,37.38374679,-121.8594032,
San Fernando,1 E San Fernando St,95113.0,Santa Clara,37.33455929,-121.8890546,
Branham,100 Branham Ln E Unit 1303,95111.0,Santa Clara,37.26846095,-121.8226052,
Capitol,1055 N Capitol Ave 176,95133.0,Santa Clara,37.38372598,-121.8594024,
Capitol,1055 N Capitol Ave 177,95133.0,Santa Clara,37.38428556,-121.8589774,
Capitol,1055 N Capitol Ave 178,95133.0,Santa Clara,37.38426471,-121.8589769,
Capitol,1055 N Capitol Ave 179,95133.0,Santa Clara,37.38420178,-121.8588917,
Capitol,1055 N Capitol Ave 18,95133.0,Santa Clara,37.38334653,-121.8585094,
Capitol,1055 N Capitol Ave 180,95133.0,Santa Clara,37.38418099,-121.8588892,
Capitol,1055 N Capitol Ave 181,95133.0,Santa Clara,37.38417617,-121.8587582,
Capitol,1055 N Capitol Ave 182,95133.0,Santa Clara,37.38415536,-121.8587567,
Capitol,1055 N Capitol Ave 183,95133.0,Santa Clara,37.38412069,-121.8587028,
Capitol,1055 N Capitol Ave 184,95133.0,Santa Clara,37.3840999,-121.8587004,
Branham,100 Branham Ln E Unit 1304,95111.0,Santa Clara,37.2685506,-121.8225113,
Capitol,1055 N Capitol Ave 185,95133.0,Santa Clara,37.38400496,-121.8586991,
Capitol,1055 N Capitol Ave 186,95133.0,Santa Clara,37.38398607,-121.858696,
Capitol,1055 N Capitol Ave 187,95133.0,Santa Clara,37.38394126,-121.8586068,
Capitol,1055 N Capitol Ave 188,95133.0,Santa Clara,37.38392231,-121.8586063,
Benbow,175 Benbow Ave,95123.0,Santa Clara,37.24702037,-121.8091536,
Bernal,175 Bernal Rd,95119.0,Santa Clara,37.2279805,-121.7767869,
Capitol,1055 N Capitol Ave 189,95133.0,Santa Clara,37.38399501,-121.8585335,
Bernal,175 Bernal Rd Ste 100,95119.0,Santa Clara,37.22806575,-121.7768409,
Bernal,175 Bernal Rd Ste 102,95119.0,Santa Clara,37.22806538,-121.7768752,
Bernal,175 Bernal Rd Ste 104,95119.0,Santa Clara,37.22803867,-121.7768061,
Bernal,175 Bernal Rd Ste 106,95119.0,Santa Clara,37.22803829,-121.7768404,
Bernal,175 Bernal Rd Ste 210,95119.0,Santa Clara,37.22791883,-121.776675,
Bernal,175 Bernal Rd Ste 220,95119.0,Santa Clara,37.22791845,-121.7767093,
Bernal,175 Bernal Rd Ste 230,95119.0,Santa Clara,37.22803792,-121.7768748,
Bernal,175 Bernal Rd Ste 240,95119.0,Santa Clara,37.2280112,-121.7768056,
Bernal,175 Bernal Rd Ste 252,95119.0,Santa Clara,37.22801083,-121.77684,
Bernal,175 Bernal Rd Ste 260,95119.0,Santa Clara,37.22801046,-121.7768743,
Capitol,1055 N Capitol Ave 19,95133.0,Santa Clara,37.38343125,-121.8584141,
Monterey,6130 Monterey Rd Spc 175,95138.0,Santa Clara,37.23877343,-121.7678893,
Blossom,175 Blossom Way,95123.0,Santa Clara,37.25271644,-121.8114093,
Boston,175 Boston Ave,95128.0,Santa Clara,37.32655243,-121.9281197,
Brill,175 Brill Ct,95116.0,Santa Clara,37.36355459,-121.8447074,
Burning Tree,175 Burning Tree Dr,95119.0,Santa Clara,37.22740502,-121.7784656,
Cahill Park,175 Cahill Park Dr,95126.0,Santa Clara,37.32816448,-121.9040953,
Alondra,175 Calle Alondra Rd,95111.0,Santa Clara,37.25825344,-121.8024833,
Calvert,175 Calvert Dr Ste Ofc,95014.0,Santa Clara,37.3210468,-122.0015478,
Carrie,175 Carrie St,95112.0,Santa Clara,37.32829458,-121.879367,
Cedarwood,175 Cedarwood Dr,95131.0,Santa Clara,37.39892246,-121.9067183,
Capitol,1055 N Capitol Ave 190,95133.0,Santa Clara,37.38397606,-121.8585332,
Chateau La Salle,175 Chateau La Salle Dr,95111.0,Santa Clara,37.29476452,-121.8553038,
Cheltenham,175 Cheltenham Pl,95139.0,Santa Clara,37.22138303,-121.7646515,
Clayton,175 Clayton Ave,95110.0,Santa Clara,37.34305199,-121.8997959,
Cleveland,175 Cleveland Ave,95128.0,Santa Clara,37.32641465,-121.9302212,
Danze,175 Danze Dr,95111.0,Santa Clara,37.26022902,-121.8039961,
Reed,175 E Reed St,95112.0,Santa Clara,37.3290136,-121.8802131,
Taylor,175 E Taylor St,95112.0,Santa Clara,37.3510727,-121.8966355,
Capitol,1055 N Capitol Ave 191,95133.0,Santa Clara,37.38406928,-121.8586258,
El Bosque,175 El Bosque St,95134.0,Santa Clara,37.41397746,-121.9418763,
El Campo,175 El Campo Dr,95127.0,Santa Clara,37.37556519,-121.8260908,
Filomena,175 Filomena Ave,95110.0,Santa Clara,37.34719067,-121.9027514,
George,175 George St,95110.0,Santa Clara,37.34663669,-121.9024233,
Gifford,175 Gifford Ave,95110.0,Santa Clara,37.32826271,-121.8987713,
Goldenrain,175 Goldenrain Dr,95111.0,Santa Clara,37.26941844,-121.8180318,
Goodyear,175 Goodyear St,95110.0,Santa Clara,37.31804288,-121.8809162,
Hawthorne,175 Hawthorne Way,95110.0,Santa Clara,37.34368835,-121.900271,
Hayes,175 Hayes Ave,95123.0,Santa Clara,37.2565231,-121.8210016,
Herlong,175 Herlong Ave,95123.0,Santa Clara,37.2440882,-121.8080595,
Capitol,1055 N Capitol Ave 192,95133.0,Santa Clara,37.38404851,-121.858622,
Hobson,175 Hobson St,95110.0,Santa Clara,37.34556932,-121.90147,
Hollywood,175 Hollywood Ave,95112.0,Santa Clara,37.31978071,-121.8738028,
Hudson,175 Hudson Pl,95123.0,Santa Clara,37.25151697,-121.7975117,
Iris Blossom,175 Iris Blossom Ct,95123.0,Santa Clara,37.25300291,-121.8139697,
Jackson,175 Jackson St,95112.0,Santa Clara,37.34886922,-121.8949603,
Kenbrook,175 Kenbrook Cir,95111.0,Santa Clara,37.28759775,-121.8399188,
Kirk,175 Kirk Ave,95127.0,Santa Clara,37.3780129,-121.8261996,
Laumer,175 Laumer Ave,95127.0,Santa Clara,37.36877764,-121.8205443,
Lewis,175 Lewis Rd,95111.0,Santa Clara,37.29442569,-121.8452851,
Lewis,175 Lewis Rd 20,95111.0,Santa Clara,37.29382995,-121.8450128,
Capitol,1055 N Capitol Ave 193,95133.0,Santa Clara,37.38417085,-121.8586318,
Lewis,175 Lewis Rd 21,95111.0,Santa Clara,37.2939196,-121.8448886,
Lewis,175 Lewis Rd 22,95111.0,Santa Clara,37.29398708,-121.8447864,
Lewis,175 Lewis Rd 23,95111.0,Santa Clara,37.29408476,-121.8450258,
Lewis,175 Lewis Rd 24,95111.0,Santa Clara,37.29425229,-121.8451923,
Lewis,175 Lewis Rd 25,95111.0,Santa Clara,37.29444301,-121.8453608,
Lewis,175 Lewis Rd 26,95111.0,Santa Clara,37.29458373,-121.8455543,
Lewis,175 Lewis Rd 27,95111.0,Santa Clara,37.2946571,-121.8457929,
Lewis,175 Lewis Rd 28,95111.0,Santa Clara,37.29471801,-121.8456912,
Lewis,175 Lewis Rd 29,95111.0,Santa Clara,37.29477794,-121.8455938,
Magellan,175 Magellan Ave,95116.0,Santa Clara,37.35694024,-121.856587,
Branham,100 Branham Ln E Unit 1305,95111.0,Santa Clara,37.26839051,-121.822506,
Capitol,1055 N Capitol Ave 194,95133.0,Santa Clara,37.38414819,-121.858627,
Manton,175 Manton Dr,95123.0,Santa Clara,37.24984126,-121.8120894,
Miramonte,175 Miramonte Ave,95037.0,Santa Clara,37.16962096,-121.6993925,
Mountain Springs,175 Mountain Springs Dr,95136.0,Santa Clara,37.28221988,-121.8647881,
Nortech,175 Nortech Pkwy,95134.0,Santa Clara,37.42412335,-121.9561994,
Nortech,175 Nortech Pkwy 200,95134.0,Santa Clara,37.42398805,-121.9559205,
Nortech,175 Nortech Pkwy FRNT,95134.0,Santa Clara,37.42398805,-121.9559205,
12th,175 N 12th St,95112.0,Santa Clara,37.34397118,-121.8810959,
13th,175 N 13th St,95112.0,Santa Clara,37.34452445,-121.880374,
16th,175 N 16th St,95112.0,Santa Clara,37.34587142,-121.8773656,
Capitol,1055 N Capitol Ave 195,95133.0,Santa Clara,37.38422898,-121.8587113,
19th,175 N 19th St,95112.0,Santa Clara,37.34695508,-121.8746025,
31st,175 N 31st St,95116.0,Santa Clara,37.35283725,-121.8636576,
34th,175 N 34th St,95116.0,Santa Clara,37.35487509,-121.8604105,
7th,175 N 7th St,95112.0,Santa Clara,37.34161598,-121.8862534,
7th,175 N 7th St 1/2,95112.0,Santa Clara,37.34153506,-121.8864495,
7th,175 N 7th St 1,95112.0,Santa Clara,37.34164244,-121.8862742,
7th,175 N 7th St 2,95112.0,Santa Clara,37.34166418,-121.8862902,
Buena Vista,175 N Buena Vista Ave,95126.0,Santa Clara,37.32529635,-121.9192399,
Capitol,175 N Capitol Ave,95127.0,Santa Clara,37.365494,-121.8395649,
Capitol,1055 N Capitol Ave 196,95133.0,Santa Clara,37.38421006,-121.8587129,
Claremont,175 N Claremont Ave,95127.0,Santa Clara,37.37438682,-121.8271266,
Jackson,175 N Jackson Ave,95116.0,Santa Clara,37.36208451,-121.8474341,
Jackson,175 N Jackson Ave 100,95116.0,Santa Clara,37.36212361,-121.8474744,
Jackson,175 N Jackson Ave 101,95116.0,Santa Clara,37.36216739,-121.8473896,
Jackson,175 N Jackson Ave 102,95116.0,Santa Clara,37.36211147,-121.8474624,
Jackson,175 N Jackson Ave 103,95116.0,Santa Clara,37.36212166,-121.8473939,
Jackson,175 N Jackson Ave 103A,95116.0,Santa Clara,37.36223999,-121.8474579,
Jackson,175 N Jackson Ave 104,95116.0,Santa Clara,37.3621259,-121.8473505,
Jackson,175 N Jackson Ave 105,95116.0,Santa Clara,37.36214664,-121.8473701,
Jackson,175 N Jackson Ave 106,95116.0,Santa Clara,37.36216001,-121.8475102,
Capitol,1055 N Capitol Ave 197,95133.0,Santa Clara,37.38425737,-121.8588352,
Jackson,175 N Jackson Ave 107,95116.0,Santa Clara,37.3621985,-121.8474189,
Jackson,175 N Jackson Ave 108,95116.0,Santa Clara,37.36221925,-121.8474384,
Jackson,175 N Jackson Ave 109,95116.0,Santa Clara,37.36220683,-121.8474808,
Jackson,175 N Jackson Ave 110,95116.0,Santa Clara,37.36209934,-121.8474505,
Jackson,175 N Jackson Ave 111,95116.0,Santa Clara,37.36213574,-121.8474863,
Jackson,175 N Jackson Ave 200,95116.0,Santa Clara,37.36218813,-121.8474091,
Jackson,175 N Jackson Ave 201,95116.0,Santa Clara,37.36217214,-121.8475221,
Jackson,175 N Jackson Ave 202,95116.0,Santa Clara,37.36218554,-121.8474591,
Jackson,175 N Jackson Ave 203,95116.0,Santa Clara,37.36226074,-121.8474775,
Jackson,175 N Jackson Ave 204,95116.0,Santa Clara,37.36214295,-121.8474156,
Capitol,1055 N Capitol Ave 198,95133.0,Santa Clara,37.38423656,-121.8588347,
Jackson,175 N Jackson Ave 205,95116.0,Santa Clara,37.36217776,-121.8473994,
Jackson,175 N Jackson Ave 206,95116.0,Santa Clara,37.36214787,-121.8474983,
Jackson,175 N Jackson Ave 207,95116.0,Santa Clara,37.36215702,-121.8473798,
Jackson,175 N Jackson Ave 208,95116.0,Santa Clara,37.36225036,-121.8474677,
Jackson,175 N Jackson Ave 209,95116.0,Santa Clara,37.36213627,-121.8473603,
Jackson,175 N Jackson Ave 210,95116.0,Santa Clara,37.36222962,-121.8474482,
Jackson,175 N Jackson Ave 212,95116.0,Santa Clara,37.36216425,-121.8474374,
Jackson,175 N Jackson Ave 213,95116.0,Santa Clara,37.36220888,-121.8474286,
Capitol,1055 N Capitol Ave 199,95133.0,Santa Clara,37.38433103,-121.8589048,
King,175 N King Rd A,95116.0,Santa Clara,37.35574256,-121.8588304,
King,175 N King Rd B,95116.0,Santa Clara,37.3557709,-121.8588542,
San Pedro,175 N San Pedro St,95110.0,Santa Clara,37.33752109,-121.8950929,
Oak,175 Oak St,95110.0,Santa Clara,37.32121743,-121.8830847,
Oakland,175 Oakland Ave,95116.0,Santa Clara,37.35248783,-121.8489888,
October,175 October Dr,95138.0,Santa Clara,37.25124744,-121.7932003,
Page Mill,175 Page Mill Dr,95111.0,Santa Clara,37.26466751,-121.8120149,
Pickford,175 Pickford Ave,95127.0,Santa Clara,37.37044696,-121.8292476,
Pickford,175 Pickford Ave A,95127.0,Santa Clara,37.37011952,-121.8294099,
Capitol,1055 N Capitol Ave 2,95133.0,Santa Clara,37.3838504,-121.8580183,
Rainier,175 Rainier St,95126.0,Santa Clara,37.32711888,-121.9095466,
Revey,175 Revey Ave,95128.0,Santa Clara,37.32538926,-121.9353165,
Rio De Lata,175 Rio De Lata,95121.0,Santa Clara,37.30313691,-121.813991,
Roundtable,175 Roundtable Dr,95111.0,Santa Clara,37.26098139,-121.80376,
San Jose,175 San Jose Ave,95125.0,Santa Clara,37.31048371,-121.8739645,
San Pedro,175 San Pedro Cir,95110.0,Santa Clara,37.34406757,-121.9007304,
San Ramon,175 San Ramon Dr,95111.0,Santa Clara,37.27734712,-121.8295204,
Blossom Hill,165 Blossom Hill Rd Spc 175,95123.0,Santa Clara,37.25290644,-121.8097813,
Capitol,1055 N Capitol Ave 20,95133.0,Santa Clara,37.38340978,-121.8584158,
Scheller,175 Scheller Ave,95037.0,Santa Clara,37.18391552,-121.7165682,
Silcreek,175 Silcreek Dr,95116.0,Santa Clara,37.35721643,-121.8545065,
14th,175 S 14th St,95112.0,Santa Clara,37.33945056,-121.8752671,
15th,175 S 15th St,95112.0,Santa Clara,37.33998597,-121.8744,
16th,175 S 16th St,95112.0,Santa Clara,37.34041753,-121.8734868,
17th,175 S 17th St,95112.0,Santa Clara,37.34078362,-121.872519,
19th,175 S 19th St,95116.0,Santa Clara,37.34156703,-121.8697854,
22nd,175 S 22nd St,95116.0,Santa Clara,37.34320587,-121.8671707,
23rd,175 S 23rd St,95116.0,Santa Clara,37.3437255,-121.8662856,
24th,175 S 24th St,95116.0,Santa Clara,37.34432732,-121.865554,
Capitol,1055 N Capitol Ave 200,95133.0,Santa Clara,37.38431365,-121.8589021,
28th,175 S 28th St,95116.0,Santa Clara,37.34588787,-121.8622464,
Capitol,175 S Capitol Ave,95127.0,Santa Clara,37.35959441,-121.833716,
Capitol,175 S Capitol Ave Ste B,95127.0,Santa Clara,37.35980119,-121.8337637,
Capitol,175 S Capitol Ave Ste C,95127.0,Santa Clara,37.35980001,-121.8338669,
Capitol,175 S Capitol Ave Ste D,95127.0,Santa Clara,37.3598524,-121.8338938,
Capitol,175 S Capitol Ave Ste E,95127.0,Santa Clara,37.3598004,-121.8338325,
Capitol,175 S Capitol Ave Ste F,95127.0,Santa Clara,37.35985319,-121.833825,
Capitol,175 S Capitol Ave Ste G,95127.0,Santa Clara,37.3598008,-121.8337981,
Capitol,175 S Capitol Ave Ste H,95127.0,Santa Clara,37.35979923,-121.8339358,
Capitol,1055 N Capitol Ave 21,95133.0,Santa Clara,37.38353215,-121.8583797,
Capitol,175 S Capitol Ave Ste I,95127.0,Santa Clara,37.3598528,-121.8338594,
Capitol,175 S Capitol Ave Ste J,95127.0,Santa Clara,37.35979962,-121.8339014,
Capitol,175 S Capitol Ave Ste K,95127.0,Santa Clara,37.35985358,-121.8337906,
Claremont,175 S Claremont Ave,95127.0,Santa Clara,37.37135366,-121.8191272,
Cragmont,175 S Cragmont Ave,95127.0,Santa Clara,37.37046402,-121.8197056,
King,175 S King Rd,95116.0,Santa Clara,37.35006774,-121.8533458,
Morrison,175 S Morrison Ave,95126.0,Santa Clara,37.32699626,-121.9086587,
Sunset,175 S Sunset Ave,95116.0,Santa Clara,37.35301232,-121.8479198,
Sprucemont,175 Sprucemont Pl,95139.0,Santa Clara,37.22259736,-121.7710323,
Sun Blossom,175 Sun Blossom Dr,95123.0,Santa Clara,37.25482658,-121.8134979,
Branham,100 Branham Ln E Unit 1306,95111.0,Santa Clara,37.26843427,-121.8223732,
Capitol,1055 N Capitol Ave 22,95133.0,Santa Clara,37.38350894,-121.8583819,
Sun Ridge,175 Sun Ridge Ln,95123.0,Santa Clara,37.24767783,-121.8571235,
Sunol,175 Sunol St,95126.0,Santa Clara,37.32706652,-121.9064574,
Sunwood Meadows,175 Sunwood Meadows Pl,95119.0,Santa Clara,37.22793748,-121.7738989,
Sutter,175 Sutter St A,95110.0,Santa Clara,37.32182936,-121.8835888,
Sutter,175 Sutter St B,95110.0,Santa Clara,37.32182896,-121.8836232,
Sutter,175 Sutter St C,95110.0,Santa Clara,37.32182855,-121.8836576,
Sutter,175 Sutter St D,95110.0,Santa Clara,37.32182815,-121.883692,
Sutter,175 Sutter St E,95110.0,Santa Clara,37.3217825,-121.8836782,
Sutter,175 Sutter St F,95110.0,Santa Clara,37.3217821,-121.8837126,
Capitol,1055 N Capitol Ave 23,95133.0,Santa Clara,37.38360358,-121.8582906,
Sutter,175 Sutter St G,95110.0,Santa Clara,37.3218019,-121.8835883,
Sutter,175 Sutter St H,95110.0,Santa Clara,37.3218015,-121.8836227,
Sutter,175 Sutter St I,95110.0,Santa Clara,37.32180109,-121.8836571,
Sutter,175 Sutter St J,95110.0,Santa Clara,37.32180068,-121.8836915,
Sutter,175 Sutter St K,95110.0,Santa Clara,37.32175504,-121.8836777,
Sutter,175 Sutter St L,95110.0,Santa Clara,37.32175464,-121.8837121,
Talmadge,175 Talmadge Ave,95127.0,Santa Clara,37.36926943,-121.8297749,
Tasman,175 Tasman Dr,95134.0,Santa Clara,37.40969488,-121.9516715,
Tillman,175 Tillman Ave,95126.0,Santa Clara,37.32868792,-121.9153852,
Tully,175 Tully Rd,95111.0,Santa Clara,37.3039053,-121.8569315,
Capitol,1055 N Capitol Ave 24,95133.0,Santa Clara,37.38358368,-121.8583207,
Turner,175 Turner Ct,95139.0,Santa Clara,37.22302494,-121.7668656,
Valley Park,175 Valley Park Cir,95139.0,Santa Clara,37.22366984,-121.7744115,
Venado,175 Venado Way,95123.0,Santa Clara,37.24914325,-121.810622,
Viewmont,175 Viewmont Ave,95127.0,Santa Clara,37.36655706,-121.8221774,
Washington,175 Washington St,95112.0,Santa Clara,37.34449857,-121.8918952,
Alma,175 W Alma Ave,95110.0,Santa Clara,37.31393178,-121.8779176,
Capitol,175 W Capitol Expy,95136.0,Santa Clara,37.27754533,-121.8418442,
St James,175 W St James St 1001,95110.0,Santa Clara,37.33798642,-121.8954346,
Capitol,1055 N Capitol Ave 25,95133.0,Santa Clara,37.3836166,-121.8581577,
St James,175 W St James St 1002,95110.0,Santa Clara,37.33792424,-121.8954895,
St James,175 W St James St 1003,95110.0,Santa Clara,37.33792525,-121.8955925,
St James,175 W St James St 1004,95110.0,Santa Clara,37.33800231,-121.8956507,
St James,175 W St James St 1005,95110.0,Santa Clara,37.33806443,-121.8956953,
St James,175 W St James St 1006,95110.0,Santa Clara,37.33814756,-121.8957592,
Capitol,1055 N Capitol Ave 26,95133.0,Santa Clara,37.38357885,-121.8581802,
St James,175 W St James St 1007,95110.0,Santa Clara,37.33822154,-121.8957003,
St James,175 W St James St 1008,95110.0,Santa Clara,37.33821926,-121.8956099,
St James,175 W St James St 1009,95110.0,Santa Clara,37.3381056,-121.8955258,
St James,175 W St James St 102,95110.0,Santa Clara,37.33796111,-121.8954937,
St James,175 W St James St 105,95110.0,Santa Clara,37.33810238,-121.8957016,
Capitol,1055 N Capitol Ave 27,95133.0,Santa Clara,37.38366491,-121.8580805,
St James,175 W St James St 106,95110.0,Santa Clara,37.33819915,-121.8957728,
St James,175 W St James St 110,95110.0,Santa Clara,37.33841375,-121.8955186,
St James,175 W St James St 1101,95110.0,Santa Clara,37.33798185,-121.895443,
St James,175 W St James St 1102,95110.0,Santa Clara,37.33791967,-121.8954978,
St James,175 W St James St 1103,95110.0,Santa Clara,37.33791956,-121.8956008,
Capitol,1055 N Capitol Ave 28,95133.0,Santa Clara,37.38364253,-121.8580821,
St James,175 W St James St 1104,95110.0,Santa Clara,37.33799773,-121.8956597,
St James,175 W St James St 1105,95110.0,Santa Clara,37.33805984,-121.8957043,
St James,175 W St James St 1106,95110.0,Santa Clara,37.33814299,-121.8957675,
St James,175 W St James St 1107,95110.0,Santa Clara,37.33821752,-121.8957087,
St James,175 W St James St 1108,95110.0,Santa Clara,37.33821524,-121.8956183,
Capitol,1055 N Capitol Ave 29,95133.0,Santa Clara,37.38376638,-121.8580558,
St James,175 W St James St 1109,95110.0,Santa Clara,37.33810046,-121.8955348,
St James,175 W St James St 111,95110.0,Santa Clara,37.33848483,-121.8955715,
St James,175 W St James St 112,95110.0,Santa Clara,37.33855616,-121.8956247,
St James,175 W St James St 1201,95110.0,Santa Clara,37.33797783,-121.895452,
St James,175 W St James St 1202,95110.0,Santa Clara,37.3379151,-121.8955062,
Capitol,1055 N Capitol Ave 3,95133.0,Santa Clara,37.38382199,-121.8581237,
St James,175 W St James St 1203,95110.0,Santa Clara,37.33791498,-121.8956098,
St James,175 W St James St 1204,95110.0,Santa Clara,37.33799426,-121.8956688,
St James,175 W St James St 1205,95110.0,Santa Clara,37.3380547,-121.8957133,
St James,175 W St James St 1206,95110.0,Santa Clara,37.33813842,-121.8957758,
St James,175 W St James St 1207,95110.0,Santa Clara,37.33821294,-121.8957177,
Capitol,1055 N Capitol Ave 30,95133.0,Santa Clara,37.38374409,-121.8580526,
St James,175 W St James St 1208,95110.0,Santa Clara,37.33821122,-121.8956273,
St James,175 W St James St 1209,95110.0,Santa Clara,37.33809589,-121.8955425,
St James,175 W St James St 1301,95110.0,Santa Clara,37.33797269,-121.895461,
St James,175 W St James St 1302,95110.0,Santa Clara,37.33791107,-121.8955152,
St James,175 W St James St 1303,95110.0,Santa Clara,37.33791096,-121.8956189,
Branham,100 Branham Ln E Unit 1307,95111.0,Santa Clara,37.26831794,-121.822404,
Capitol,1055 N Capitol Ave 31,95133.0,Santa Clara,37.3838122,-121.8579607,
St James,175 W St James St 1304,95110.0,Santa Clara,37.33798912,-121.8956778,
St James,175 W St James St 1305,95110.0,Santa Clara,37.33805011,-121.895723,
St James,175 W St James St 1306,95110.0,Santa Clara,37.33813383,-121.8957849,
St James,175 W St James St 1307,95110.0,Santa Clara,37.33820893,-121.895726,
St James,175 W St James St 1308,95110.0,Santa Clara,37.33820664,-121.8956363,
Capitol,1055 N Capitol Ave 32,95133.0,Santa Clara,37.38379022,-121.8579639,
St James,175 W St James St 1309,95110.0,Santa Clara,37.33809131,-121.8955515,
St James,175 W St James St 1401,95110.0,Santa Clara,37.33796926,-121.8954203,
St James,175 W St James St 1402,95110.0,Santa Clara,37.33792548,-121.8955267,
St James,175 W St James St 1403,95110.0,Santa Clara,37.33789423,-121.8955674,
Capitol,1055 N Capitol Ave 33,95133.0,Santa Clara,37.38322963,-121.8586089,
St James,175 W St James St 1405,95110.0,Santa Clara,37.33806619,-121.8957353,
St James,175 W St James St 1406,95110.0,Santa Clara,37.33812152,-121.8957384,
St James,175 W St James St 1407,95110.0,Santa Clara,37.33820491,-121.8957343,
St James,175 W St James St 1408,95110.0,Santa Clara,37.33819272,-121.8955842,
St James,175 W St James St 1409,95110.0,Santa Clara,37.33807233,-121.8955007,
Capitol,1055 N Capitol Ave 34,95133.0,Santa Clara,37.38321034,-121.8586077,
St James,175 W St James St 1501,95110.0,Santa Clara,37.33796522,-121.8954307,
St James,175 W St James St 1502,95110.0,Santa Clara,37.33792146,-121.8955357,
St James,175 W St James St 1503,95110.0,Santa Clara,37.3378902,-121.8955772,
St James,175 W St James St 1505,95110.0,Santa Clara,37.33806218,-121.8957429,
St James,175 W St James St 1506,95110.0,Santa Clara,37.33811694,-121.8957474,
Capitol,1055 N Capitol Ave 35,95133.0,Santa Clara,37.38329953,-121.8586924,
St James,175 W St James St 1507,95110.0,Santa Clara,37.3382009,-121.8957427,
St James,175 W St James St 1508,95110.0,Santa Clara,37.33818702,-121.8955932,
St James,175 W St James St 1509,95110.0,Santa Clara,37.3380672,-121.895509,
St James,175 W St James St 203,95110.0,Santa Clara,37.33796765,-121.8956024,
St James,175 W St James St 204,95110.0,Santa Clara,37.33804141,-121.8956549,
Capitol,1055 N Capitol Ave 36,95133.0,Santa Clara,37.38328083,-121.8586899,
St James,175 W St James St 208,95110.0,Santa Clara,37.33826778,-121.8956213,
St James,175 W St James St 209,95110.0,Santa Clara,37.33815243,-121.8955386,
St James,175 W St James St 301,95110.0,Santa Clara,37.33803922,-121.8954629,
St James,175 W St James St 302,95110.0,Santa Clara,37.3379571,-121.895502,
St James,175 W St James St 303,95110.0,Santa Clara,37.33796363,-121.8956107,
Capitol,1055 N Capitol Ave 37,95133.0,Santa Clara,37.38336638,-121.8587733,
St James,175 W St James St 304,95110.0,Santa Clara,37.33803796,-121.8956633,
St James,175 W St James St 305,95110.0,Santa Clara,37.33809781,-121.8957099,
St James,175 W St James St 306,95110.0,Santa Clara,37.33819541,-121.8957804,
St James,175 W St James St 308,95110.0,Santa Clara,37.33826433,-121.8956297,
St James,175 W St James St 309,95110.0,Santa Clara,37.33814841,-121.8955469,
Capitol,1055 N Capitol Ave 38,95133.0,Santa Clara,37.38334562,-121.8587758,
St James,175 W St James St 401,95110.0,Santa Clara,37.33803523,-121.8954699,
St James,175 W St James St 402,95110.0,Santa Clara,37.33795309,-121.8955097,
St James,175 W St James St 403,95110.0,Santa Clara,37.33795962,-121.8956191,
St James,175 W St James St 404,95110.0,Santa Clara,37.33803337,-121.895673,
St James,175 W St James St 405,95110.0,Santa Clara,37.33809435,-121.895719,
Capitol,1055 N Capitol Ave 39,95133.0,Santa Clara,37.38344162,-121.8588579,
St James,175 W St James St 406,95110.0,Santa Clara,37.3381914,-121.8957887,
St James,175 W St James St 407,95110.0,Santa Clara,37.33825439,-121.8957129,
St James,175 W St James St 408,95110.0,Santa Clara,37.33826087,-121.895638,
St James,175 W St James St 409,95110.0,Santa Clara,37.3381444,-121.8955553,
St James,175 W St James St 501,95110.0,Santa Clara,37.33803065,-121.8954782,
Capitol,1055 N Capitol Ave 4,95133.0,Santa Clara,37.38379873,-121.8581184,
St James,175 W St James St 502,95110.0,Santa Clara,37.33794852,-121.895518,
St James,175 W St James St 503,95110.0,Santa Clara,37.3379556,-121.8956274,
St James,175 W St James St 504,95110.0,Santa Clara,37.3380299,-121.895682,
St James,175 W St James St 505,95110.0,Santa Clara,37.33809033,-121.8957273,
St James,175 W St James St 506,95110.0,Santa Clara,37.33818683,-121.8957971,
Branham,100 Branham Ln E Unit 1308,95111.0,Santa Clara,37.26839585,-121.822286,
Capitol,1055 N Capitol Ave 40,95133.0,Santa Clara,37.38342397,-121.8588543,
St James,175 W St James St 507,95110.0,Santa Clara,37.33825092,-121.8957219,
St James,175 W St James St 508,95110.0,Santa Clara,37.33825685,-121.895647,
St James,175 W St James St 509,95110.0,Santa Clara,37.33814094,-121.8955636,
St James,175 W St James St 601,95110.0,Santa Clara,37.33802665,-121.8954858,
St James,175 W St James St 602,95110.0,Santa Clara,37.33794393,-121.895527,
Capitol,1055 N Capitol Ave 41,95133.0,Santa Clara,37.38338123,-121.8589536,
St James,175 W St James St 603,95110.0,Santa Clara,37.3379516,-121.895635,
St James,175 W St James St 604,95110.0,Santa Clara,37.33802533,-121.8956904,
St James,175 W St James St 605,95110.0,Santa Clara,37.33808575,-121.8957363,
St James,175 W St James St 606,95110.0,Santa Clara,37.33818281,-121.8958054,
St James,175 W St James St 607,95110.0,Santa Clara,37.33824579,-121.8957302,
Capitol,1055 N Capitol Ave 42,95133.0,Santa Clara,37.38336163,-121.8589572,
